[
  {
    "Region": "Ashanti",
    "District": "Offinso North",
    "FacilityName": "A.M.E Zion Clinic",
    "Type": "Clinic",
    "Town": "Afrancho",
    "Ownership": "CHAG",
    "Latitude": "7.408010",
    "Longitude": "-1.963170"
  },
  {
    "Region": "Ashanti",
    "District": "Bekwai Municipal",
    "FacilityName": "Abenkyiman Clinic",
    "Type": "Clinic",
    "Town": "Anwiankwanta",
    "Ownership": "Private",
    "Latitude": "6.463120",
    "Longitude": "-1.585920"
  },
  {
    "Region": "Ashanti",
    "District": "Adansi North",
    "FacilityName": "Aboabo Health Centre",
    "Type": "Health Centre",
    "Town": "Aboabo No 2",
    "Ownership": "Government",
    "Latitude": "6.223930",
    "Longitude": "-1.349820"
  },
  {
    "Region": "Ashanti",
    "District": "Afigya-Kwabre",
    "FacilityName": "Aboabogya Health Centre",
    "Type": "Health Centre",
    "Town": "Aboabogya",
    "Ownership": "Government",
    "Latitude": "6.841770",
    "Longitude": "-1.610980"
  },
  {
    "Region": "Ashanti",
    "District": "Kwabre",
    "FacilityName": "Aboaso Health Centre",
    "Type": "Health Centre",
    "Town": "Aboaso",
    "Ownership": "Government",
    "Latitude": "6.841770",
    "Longitude": "-1.610980"
  },
  {
    "Region": "Ashanti",
    "District": "Offinso North",
    "FacilityName": "Aboffour Health Centre",
    "Type": "Health Centre",
    "Town": "Aboffour",
    "Ownership": "Government",
    "Latitude": "7.129860",
    "Longitude": "-1.732940"
  },
  {
    "Region": "Ashanti",
    "District": "Atwima-Nwabiagya",
    "FacilityName": "Abuakwa Maternity Home",
    "Type": "Maternity Home",
    "Town": "Abuakwa",
    "Ownership": "Private",
    "Latitude": "7.000000",
    "Longitude": "-2.000000"
  },
  {
    "Region": "Ashanti",
    "District": "Atwima-Kwanwoma",
    "FacilityName": "Aburaso Methodist clinic",
    "Type": "Clinic",
    "Town": "Aburaso",
    "Ownership": "CHAG",
    "Latitude": "6.661330",
    "Longitude": "-1.676620"
  },
  {
    "Region": "Ashanti",
    "District": "Ejisu-Juaben Municipal",
    "FacilityName": "Achiase Health Centre",
    "Type": "Health Centre",
    "Town": "Achiase",
    "Ownership": "Government",
    "Latitude": "6.455430",
    "Longitude": "-1.310040"
  },
  {
    "Region": "Ashanti",
    "District": "Mampong Municipal",
    "FacilityName": "Adidwan Health Centre",
    "Type": "Health Centre",
    "Town": "Adidwan",
    "Ownership": "Government",
    "Latitude": "7.251630",
    "Longitude": "-1.402780"
  },
  {
    "Region": "Ashanti",
    "District": "Amansie West",
    "FacilityName": "Adimposo CHPS",
    "Type": "CHPS",
    "Town": "Adimposo",
    "Ownership": "Government",
    "Latitude": "6.336590",
    "Longitude": "-1.925880"
  },
  {
    "Region": "Ashanti",
    "District": "Asante-Akim North Municipal",
    "FacilityName": "Adom Hospital",
    "Type": "Hospital",
    "Town": "Akratiebesa",
    "Ownership": "Private",
    "Latitude": "6.618790",
    "Longitude": "-1.192020"
  },
  {
    "Region": "Ashanti",
    "District": "Ahafo-Ano South",
    "FacilityName": "Adom Maternity Home",
    "Type": "Maternity Home",
    "Town": "Adinyana",
    "Ownership": "Private",
    "Latitude": "6.883640",
    "Longitude": "-1.873340"
  },
  {
    "Region": "Ashanti",
    "District": "Afigya-Kwabre",
    "FacilityName": "Adwumakase Kese Health Centre",
    "Type": "Health Centre",
    "Town": "Adwumakase Kese",
    "Ownership": "Government",
    "Latitude": "6.808130",
    "Longitude": "-1.539330"
  },
  {
    "Region": "Ashanti",
    "District": "Sekyere South",
    "FacilityName": "Afamaso Maternity Home",
    "Type": "Maternity Home",
    "Town": "Afamaso",
    "Ownership": "Private",
    "Latitude": "6.949120",
    "Longitude": "-1.508730"
  },
  {
    "Region": "Ashanti",
    "District": "Sekyere Central",
    "FacilityName": "Aframso Health Centre",
    "Type": "Health Centre",
    "Town": "Aframso No.3",
    "Ownership": "Government",
    "Latitude": "7.144720",
    "Longitude": "-1.121620"
  },
  {
    "Region": "Ashanti",
    "District": "Afigya-Kwabre",
    "FacilityName": "Afrancho Health Centre",
    "Type": "Health Centre",
    "Town": "Afrancho",
    "Ownership": "Government",
    "Latitude": "6.815270",
    "Longitude": "-1.595890"
  },
  {
    "Region": "Ashanti",
    "District": "Asante-Akim North Municipal",
    "FacilityName": "Agogo Presby Hospital",
    "Type": "Hospital",
    "Town": "Agogo",
    "Ownership": "CHAG",
    "Latitude": "6.796180",
    "Longitude": "-1.085290"
  },
  {
    "Region": "Ashanti",
    "District": "Sekyere South",
    "FacilityName": "Agona Health Centre",
    "Type": "Health Centre",
    "Town": "Agona",
    "Ownership": "Government",
    "Latitude": "6.936050",
    "Longitude": "-1.497590"
  },
  {
    "Region": "Ashanti",
    "District": "Ejisu-Juaben Municipal",
    "FacilityName": "Agyenkwa Clinic",
    "Type": "Clinic",
    "Town": "Hwireso",
    "Ownership": "Private",
    "Latitude": "6.675220",
    "Longitude": "-1.381590"
  },
  {
    "Region": "Ashanti",
    "District": "Obuasi Municipal",
    "FacilityName": "Agyenkwa Clinic",
    "Type": "Clinic",
    "Town": "New  Estate-Obuasi",
    "Ownership": "Private",
    "Latitude": "6.208980",
    "Longitude": "-1.671030"
  },
  {
    "Region": "Ashanti",
    "District": "Atwima-Kwanwoma",
    "FacilityName": "Ahenema kokoben Health Centre",
    "Type": "Health Centre",
    "Town": "Ahenema kokoben",
    "Ownership": "Government",
    "Latitude": "6.625970",
    "Longitude": "-1.649780"
  },
  {
    "Region": "Ashanti",
    "District": "Afigya-Kwabre",
    "FacilityName": "Ahenkro Health Centre",
    "Type": "Health Centre",
    "Town": "Ahenkro",
    "Ownership": "Government",
    "Latitude": "6.871550",
    "Longitude": "-1.640090"
  },
  {
    "Region": "Ashanti",
    "District": "Sekyere East",
    "FacilityName": "Ahmadiya Muslim Hospital",
    "Type": "Hospital",
    "Town": "Effiduase",
    "Ownership": "Private",
    "Latitude": "6.845340",
    "Longitude": "-1.383660"
  },
  {
    "Region": "Ashanti",
    "District": "Bekwai Municipal",
    "FacilityName": "Ahmadiyaa Mission Hospital",
    "Type": "Hospital",
    "Town": "Kokofu",
    "Ownership": "Private",
    "Latitude": "6.509860",
    "Longitude": "-1.536490"
  },
  {
    "Region": "Ashanti",
    "District": "Bekwai Municipal",
    "FacilityName": "Ahwene Memorial Hospital",
    "Type": "Hospital",
    "Town": "Bekwai",
    "Ownership": "Private",
    "Latitude": "6.454910",
    "Longitude": "-1.570710"
  },
  {
    "Region": "Ashanti",
    "District": "Adansi South",
    "FacilityName": "Aim High Clinic",
    "Type": "Clinic",
    "Town": "Subin Camp",
    "Ownership": "Private",
    "Latitude": "5.967170",
    "Longitude": "-1.449930"
  },
  {
    "Region": "Ashanti",
    "District": "Sekyere East",
    "FacilityName": "Akokuaso Health Centre",
    "Type": "Health Centre",
    "Town": "Akokuaso",
    "Ownership": "Government",
    "Latitude": "6.853550",
    "Longitude": "-1.335830"
  },
  {
    "Region": "Ashanti",
    "District": "Bekwai Municipal",
    "FacilityName": "Akomaa Memorial Hospital",
    "Type": "Hospital",
    "Town": "Kortwia",
    "Ownership": "CHAG",
    "Latitude": "6.439660",
    "Longitude": "-1.538370"
  },
  {
    "Region": "Ashanti",
    "District": "Offinso North",
    "FacilityName": "Akomadan Health Centre",
    "Type": "Health Centre",
    "Town": "Akomadan zongo",
    "Ownership": "Government",
    "Latitude": "7.405810",
    "Longitude": "-1.960720"
  },
  {
    "Region": "Ashanti",
    "District": "Adansi North",
    "FacilityName": "Akrofrom Clinic",
    "Type": "Clinic",
    "Town": "New Akrofrom",
    "Ownership": "Private",
    "Latitude": "6.153480",
    "Longitude": "-1.476210"
  },
  {
    "Region": "Ashanti",
    "District": "Amansie Central",
    "FacilityName": "Akrofrom Community Clinic",
    "Type": "Clinic",
    "Town": "Akrofrom",
    "Ownership": "Government",
    "Latitude": "6.396510",
    "Longitude": "-1.607830"
  },
  {
    "Region": "Ashanti",
    "District": "Adansi South",
    "FacilityName": "Akrofrom Health Centre",
    "Type": "Health Centre",
    "Town": "Akrofrom",
    "Ownership": "Government",
    "Latitude": "6.123850",
    "Longitude": "-1.653870"
  },
  {
    "Region": "Ashanti",
    "District": "Adansi North",
    "FacilityName": "Akrokerri Health Centre",
    "Type": "Health Centre",
    "Town": "Akrokerri",
    "Ownership": "Government",
    "Latitude": "6.295130",
    "Longitude": "-1.632240"
  },
  {
    "Region": "Ashanti",
    "District": "Atwima-Nwabiagya",
    "FacilityName": "Akropong Health Centre",
    "Type": "Health Centre",
    "Town": "Akropong",
    "Ownership": "Government",
    "Latitude": "7.000000",
    "Longitude": "-2.000000"
  },
  {
    "Region": "Ashanti",
    "District": "Atwima-Nwabiagya",
    "FacilityName": "Akropong Maternity Home",
    "Type": "Maternity Home",
    "Town": "Akropong",
    "Ownership": "Private",
    "Latitude": "7.000000",
    "Longitude": "-2.000000"
  },
  {
    "Region": "Ashanti",
    "District": "Adansi South",
    "FacilityName": "Akutreso Health Centre",
    "Type": "Health Centre",
    "Town": "Akutreso",
    "Ownership": "Government",
    "Latitude": "6.096190",
    "Longitude": "-1.292920"
  },
  {
    "Region": "Ashanti",
    "District": "Ahafo-Ano North",
    "FacilityName": "Akwasiase Dressing Station",
    "Type": "Clinic",
    "Town": "Akwasiase",
    "Ownership": "Quasi-Government",
    "Latitude": "6.994980",
    "Longitude": "-2.198870"
  },
  {
    "Region": "Ashanti",
    "District": "Ahafo-Ano North",
    "FacilityName": "Alice Memorial Maternity Clinic",
    "Type": "Maternity Home",
    "Town": "Tepa",
    "Ownership": "Private",
    "Latitude": "6.999610",
    "Longitude": "-2.171340"
  },
  {
    "Region": "Ashanti",
    "District": "Obuasi Municipal",
    "FacilityName": "All Souls Clinic",
    "Type": "Clinic",
    "Town": "Akaporiso",
    "Ownership": "Private",
    "Latitude": "6.198520",
    "Longitude": "-1.628810"
  },
  {
    "Region": "Ashanti",
    "District": "Adansi South",
    "FacilityName": "Allen Health Clinic",
    "Type": "Clinic",
    "Town": "Wamasi",
    "Ownership": "Government",
    "Latitude": "6.086910",
    "Longitude": "-1.695530"
  },
  {
    "Region": "Ashanti",
    "District": "Obuasi Municipal",
    "FacilityName": "Amansan Clinic",
    "Type": "Clinic",
    "Town": "Aboagye Krom",
    "Ownership": "Private",
    "Latitude": "6.191280",
    "Longitude": "-1.650440"
  },
  {
    "Region": "Ashanti",
    "District": "Asante-Akim North Municipal",
    "FacilityName": "Amantenaman Health Centre",
    "Type": "Health Centre",
    "Town": "Nyinamponase",
    "Ownership": "Government",
    "Latitude": "6.770050",
    "Longitude": "-1.162540"
  },
  {
    "Region": "Ashanti",
    "District": "Ejisu-Juaben Municipal",
    "FacilityName": "Amponsah Konadu Memorial Maternity Home",
    "Type": "Maternity Home",
    "Town": "Bonwire",
    "Ownership": "Private",
    "Latitude": "6.792620",
    "Longitude": "-1.471870"
  },
  {
    "Region": "Ashanti",
    "District": "Adansi South",
    "FacilityName": "Ampunyasi Health Centre",
    "Type": "Health Centre",
    "Town": "Ampunyasi",
    "Ownership": "Government",
    "Latitude": "6.055190",
    "Longitude": "-1.736770"
  },
  {
    "Region": "Ashanti",
    "District": "Ahafo-Ano North",
    "FacilityName": "Anane Aya Maternity Home",
    "Type": "Maternity Home",
    "Town": "Akwasiase",
    "Ownership": "Private",
    "Latitude": "6.995420",
    "Longitude": "-2.199930"
  },
  {
    "Region": "Ashanti",
    "District": "Asante-Akim North Municipal",
    "FacilityName": "Ananekrom Health Centre",
    "Type": "Health Centre",
    "Town": "Ananekrom",
    "Ownership": "Government",
    "Latitude": "6.915270",
    "Longitude": "-1.015330"
  },
  {
    "Region": "Ashanti",
    "District": "Bosomtwe",
    "FacilityName": "Anglican (Mobile) Eye Clinic",
    "Type": "Clinic",
    "Town": "Jachie",
    "Ownership": "CHAG",
    "Latitude": "6.566150",
    "Longitude": "-1.520660"
  },
  {
    "Region": "Ashanti",
    "District": "Bosomtwe",
    "FacilityName": "Atonso/Agogo Fejiase clinic",
    "Type": "Clinic",
    "Town": "Feyiase",
    "Ownership": "Private",
    "Latitude": "6.612680",
    "Longitude": "-1.559990"
  },
  {
    "Region": "Ashanti",
    "District": "Bosomtwe",
    "FacilityName": "Brodekwanu Methodis Clinic",
    "Type": "Clinic",
    "Town": "Brodekwanu",
    "Ownership": "CHAG",
    "Latitude": "6.535460",
    "Longitude": "-1.353650"
  },
  {
    "Region": "Ashanti",
    "District": "Bosomtwe",
    "FacilityName": "CAMFAP Maternity Clinic",
    "Type": "Clinic",
    "Town": "New Kokobiriko (Abijan-Nkwant",
    "Ownership": "Private",
    "Latitude": "6.579330",
    "Longitude": "-1.544040"
  },
  {
    "Region": "Ashanti",
    "District": "Bosomtwe",
    "FacilityName": "Jachie Health Centre",
    "Type": "Health Centre",
    "Town": "Jachie",
    "Ownership": "Government",
    "Latitude": "6.565980",
    "Longitude": "-1.520970"
  },
  {
    "Region": "Ashanti",
    "District": "Bosomtwe",
    "FacilityName": "Kuntenase Government Hospital",
    "Type": "District Hospital",
    "Town": "Kuntenase",
    "Ownership": "Government",
    "Latitude": "6.537520",
    "Longitude": "-1.474540"
  },
  {
    "Region": "Ashanti",
    "District": "Bosomtwe",
    "FacilityName": "Lake Bosomtwi Methodist Clinic",
    "Type": "Clinic",
    "Town": "Amakom",
    "Ownership": "CHAG",
    "Latitude": "6.483980",
    "Longitude": "-1.373620"
  },
  {
    "Region": "Ashanti",
    "District": "Bosomtwe",
    "FacilityName": "Nyameani Methodist Clinic",
    "Type": "Clinic",
    "Town": "Nyameani",
    "Ownership": "CHAG",
    "Latitude": "6.564580",
    "Longitude": "-1.430220"
  },
  {
    "Region": "Ashanti",
    "District": "Bosomtwe",
    "FacilityName": "Piase CHPS",
    "Type": "CHPS",
    "Town": "Piase",
    "Ownership": "Government",
    "Latitude": "6.590990",
    "Longitude": "-1.451510"
  },
  {
    "Region": "Ashanti",
    "District": "Bosomtwe",
    "FacilityName": "SDA Clinic Konkoma",
    "Type": "Clinic",
    "Town": "Konkoma",
    "Ownership": "CHAG",
    "Latitude": "6.512910",
    "Longitude": "-1.348490"
  },
  {
    "Region": "Ashanti",
    "District": "Bosomtwe",
    "FacilityName": "Sophia Maternity Home",
    "Type": "Maternity Home",
    "Town": "Esereso",
    "Ownership": "Private",
    "Latitude": "6.631590",
    "Longitude": "-1.561470"
  },
  {
    "Region": "Ashanti",
    "District": "Bosomtwe",
    "FacilityName": "St. Marys Anglican Clinic",
    "Type": "Clinic",
    "Town": "Apinkra",
    "Ownership": "CHAG",
    "Latitude": "6.540560",
    "Longitude": "-1.543460"
  },
  {
    "Region": "Ashanti",
    "District": "Bosomtwe",
    "FacilityName": "St. Micheal Hospital",
    "Type": "Hospital",
    "Town": "Pramso",
    "Ownership": "CHAG",
    "Latitude": "6.558720",
    "Longitude": "-1.512470"
  },
  {
    "Region": "Ashanti",
    "District": "Obuasi Municipal",
    "FacilityName": "Anyinam Clinic",
    "Type": "Clinic",
    "Town": "Obuasi-Anyinam",
    "Ownership": "Government",
    "Latitude": "6.198970",
    "Longitude": "-1.682050"
  },
  {
    "Region": "Ashanti",
    "District": "Ahafo-Ano North",
    "FacilityName": "Anyinasuso Health Centre",
    "Type": "Health Centre",
    "Town": "Anyinasuso",
    "Ownership": "Government",
    "Latitude": "6.959130",
    "Longitude": "-2.100370"
  },
  {
    "Region": "Ashanti",
    "District": "Ahafo-Ano North",
    "FacilityName": "Anyinasuso Maternity Home",
    "Type": "Maternity Home",
    "Town": "Anyinasuso",
    "Ownership": "Private",
    "Latitude": "6.958710",
    "Longitude": "-2.100150"
  },
  {
    "Region": "Ashanti",
    "District": "Offinso North",
    "FacilityName": "Anyinasusu SDA Centre",
    "Type": "Clinic",
    "Town": "Anyinasusu",
    "Ownership": "CHAG",
    "Latitude": "7.014840",
    "Longitude": "-1.708740"
  },
  {
    "Region": "Ashanti",
    "District": "Sekyere Afram Plains",
    "FacilityName": "Anyinofi Health Centre",
    "Type": "Health Centre",
    "Town": "Anyinofi",
    "Ownership": "Government",
    "Latitude": "7.425280",
    "Longitude": "-0.770450"
  },
  {
    "Region": "Ashanti",
    "District": "Mampong Municipal",
    "FacilityName": "Apaa Maternity Home",
    "Type": "Maternity Home",
    "Town": "Apaa",
    "Ownership": "Private",
    "Latitude": "6.955110",
    "Longitude": "-1.434650"
  },
  {
    "Region": "Ashanti",
    "District": "Ejisu-Juaben Municipal",
    "FacilityName": "Apromase Health Centre",
    "Type": "Health Centre",
    "Town": "Apromase",
    "Ownership": "Government",
    "Latitude": "6.670850",
    "Longitude": "-1.495430"
  },
  {
    "Region": "Ashanti",
    "District": "Mampong Municipal",
    "FacilityName": "Asaam Health Clinic",
    "Type": "Health Centre",
    "Town": "Asaam",
    "Ownership": "Government",
    "Latitude": "7.117320",
    "Longitude": "-1.465980"
  },
  {
    "Region": "Ashanti",
    "District": "Obuasi Municipal",
    "FacilityName": "Asempa   Maternity and Clinic",
    "Type": "Clinic",
    "Town": "Gausu",
    "Ownership": "Private",
    "Latitude": "6.199240",
    "Longitude": "-1.682330"
  },
  {
    "Region": "Ashanti",
    "District": "Atwima-Kwanwoma",
    "FacilityName": "Ahenema kokoben Health Centre",
    "Type": "Health Centre",
    "Town": "Ahenema kokoben",
    "Ownership": "Government",
    "Latitude": "6.625970",
    "Longitude": "-1.649780"
  },
  {
    "Region": "Ashanti",
    "District": "Atwima-Kwanwoma",
    "FacilityName": "Bebu Methodist Clinic",
    "Type": "Clinic",
    "Town": "Bebu",
    "Ownership": "CHAG",
    "Latitude": "6.611540",
    "Longitude": "-1.685050"
  },
  {
    "Region": "Ashanti",
    "District": "Atwima-Kwanwoma",
    "FacilityName": "Eye Adom Maternity Home",
    "Type": "Maternity Home",
    "Town": "Brofoyeduru",
    "Ownership": "Private",
    "Latitude": "6.614580",
    "Longitude": "-1.658570"
  },
  {
    "Region": "Ashanti",
    "District": "Atwima-Kwanwoma",
    "FacilityName": "Foase Health Centre",
    "Type": "Health Centre",
    "Town": "Foase",
    "Ownership": "Government",
    "Latitude": "6.637510",
    "Longitude": "-1.751240"
  },
  {
    "Region": "Ashanti",
    "District": "Atwima-Kwanwoma",
    "FacilityName": "Kwanwoma Health Centre",
    "Type": "Health Centre",
    "Town": "Kwanwoma",
    "Ownership": "Government",
    "Latitude": "6.628650",
    "Longitude": "-1.635240"
  },
  {
    "Region": "Ashanti",
    "District": "Atwima-Kwanwoma",
    "FacilityName": "Trabuom Health Centre",
    "Type": "Health Centre",
    "Town": "Trabuom",
    "Ownership": "Government",
    "Latitude": "6.611420",
    "Longitude": "-1.762520"
  },
  {
    "Region": "Ashanti",
    "District": "Atwima-Kwanwoma",
    "FacilityName": "Trede Health Centre",
    "Type": "Health Centre",
    "Town": "Trede",
    "Ownership": "Government",
    "Latitude": "6.578030",
    "Longitude": "-1.668590"
  },
  {
    "Region": "Ashanti",
    "District": "Bosome Freho",
    "FacilityName": "Asiwa Health Centre",
    "Type": "Health Centre",
    "Town": "Asiwa",
    "Ownership": "Government",
    "Latitude": "6.423440",
    "Longitude": "-1.334340"
  },
  {
    "Region": "Ashanti",
    "District": "Adansi North",
    "FacilityName": "Asokwa Health Centre",
    "Type": "Health Centre",
    "Town": "Asokwa",
    "Ownership": "Government",
    "Latitude": "6.280680",
    "Longitude": "-1.507860"
  },
  {
    "Region": "Ashanti",
    "District": "Amansie West",
    "FacilityName": "Essuowin Health Centre",
    "Type": "Health Centre",
    "Town": "Assuowin",
    "Ownership": "Government",
    "Latitude": "6.536560",
    "Longitude": "-1.865020"
  },
  {
    "Region": "Ashanti",
    "District": "Sekyere Central",
    "FacilityName": "Asubuasu Health Centre",
    "Type": "Health Centre",
    "Town": "Asubuasu",
    "Ownership": "Government",
    "Latitude": "7.316240",
    "Longitude": "-1.235290"
  },
  {
    "Region": "Ashanti",
    "District": "Atwima-Nwabiagya",
    "FacilityName": "Asuofua Health Centre",
    "Type": "Health Centre",
    "Town": "Asuofia",
    "Ownership": "Government",
    "Latitude": "7.000000",
    "Longitude": "-2.000000"
  },
  {
    "Region": "Ashanti",
    "District": "Adansi South",
    "FacilityName": "Ataasi Health Centre",
    "Type": "Health Centre",
    "Town": "Ataasi Nkwanta",
    "Ownership": "Government",
    "Latitude": "5.966640",
    "Longitude": "-1.364540"
  },
  {
    "Region": "Ashanti",
    "District": "Sekyere Central",
    "FacilityName": "Atonsu Health Centre",
    "Type": "Health Centre",
    "Town": "Atonsu",
    "Ownership": "Government",
    "Latitude": "7.023720",
    "Longitude": "-1.309120"
  },
  {
    "Region": "Ashanti",
    "District": "Adansi South",
    "FacilityName": "Atwereboana Clinic",
    "Type": "Clinic",
    "Town": "Atwereboana",
    "Ownership": "Government",
    "Latitude": "5.962350",
    "Longitude": "-1.342130"
  },
  {
    "Region": "Ashanti",
    "District": "Atwima-Nwabiagya",
    "FacilityName": "Atwima Clinic",
    "Type": "Clinic",
    "Town": "Atwima",
    "Ownership": "Government",
    "Latitude": "7.000000",
    "Longitude": "-2.000000"
  },
  {
    "Region": "Ashanti",
    "District": "Obuasi Municipal",
    "FacilityName": "Avril Clinic",
    "Type": "Clinic",
    "Town": "Akaporiso",
    "Ownership": "Private",
    "Latitude": "6.198020",
    "Longitude": "-1.629530"
  },
  {
    "Region": "Ashanti",
    "District": "Ejura Sekyeredumasi",
    "FacilityName": "Babaso MCH",
    "Type": "Clinic",
    "Town": "Babaso",
    "Ownership": "Government",
    "Latitude": "7.340650",
    "Longitude": "-1.324170"
  },
  {
    "Region": "Ashanti",
    "District": "Asante-Akim South",
    "FacilityName": "Banka Health Centre",
    "Type": "Health Centre",
    "Town": "Banka",
    "Ownership": "Government",
    "Latitude": "6.298240",
    "Longitude": "-1.216150"
  },
  {
    "Region": "Ashanti",
    "District": "Sekyere Afram Plains",
    "FacilityName": "Banko Health Centre",
    "Type": "Health Centre",
    "Town": "Banko",
    "Ownership": "Government",
    "Latitude": "6.758220",
    "Longitude": "-1.284730"
  },
  {
    "Region": "Ashanti",
    "District": "Asante-Akim South",
    "FacilityName": "Banso SDA Clinic",
    "Type": "Clinic",
    "Town": "Banso",
    "Ownership": "Government",
    "Latitude": "6.475840",
    "Longitude": "-1.196740"
  },
  {
    "Region": "Ashanti",
    "District": "Atwima-Nwabiagya",
    "FacilityName": "Barekese Health Centre",
    "Type": "Health Centre",
    "Town": "Barekese",
    "Ownership": "Government",
    "Latitude": "7.000000",
    "Longitude": "-2.000000"
  },
  {
    "Region": "Ashanti",
    "District": "Atwima-Mponua",
    "FacilityName": "Barniekrom maternity home",
    "Type": "Maternity Home",
    "Town": "Barniekrom",
    "Ownership": "Government",
    "Latitude": "6.541990",
    "Longitude": "-2.174730"
  },
  {
    "Region": "Ashanti",
    "District": "Asante-Akim North Municipal",
    "FacilityName": "Bebome Health Centre",
    "Type": "Health Centre",
    "Town": "Bebome",
    "Ownership": "Government",
    "Latitude": "6.867250",
    "Longitude": "-1.095660"
  },
  {
    "Region": "Ashanti",
    "District": "Atwima-Kwanwoma",
    "FacilityName": "Bebu Methodist Clinic",
    "Type": "Clinic",
    "Town": "Bebu",
    "Ownership": "CHAG",
    "Latitude": "6.611540",
    "Longitude": "-1.685050"
  },
  {
    "Region": "Ashanti",
    "District": "Bekwai Municipal",
    "FacilityName": "Bekwai Government Hospital",
    "Type": "District Hospital",
    "Town": "Bekwai",
    "Ownership": "Government",
    "Latitude": "6.456050",
    "Longitude": "-1.578570"
  },
  {
    "Region": "Ashanti",
    "District": "Mampong Municipal",
    "FacilityName": "Benim Health Centre",
    "Type": "Health Centre",
    "Town": "Benim",
    "Ownership": "Government",
    "Latitude": "7.090540",
    "Longitude": "-1.464590"
  },
  {
    "Region": "Ashanti",
    "District": "Sekyere Central",
    "FacilityName": "Beposo Health Centre",
    "Type": "Centre",
    "Town": "Beposo",
    "Ownership": "Government",
    "Latitude": "6.985260",
    "Longitude": "-1.355030"
  },
  {
    "Region": "Ashanti",
    "District": "Atwima-Mponua",
    "FacilityName": "Bethel Maternity Home",
    "Type": "Maternity Home",
    "Town": "Enyinamoso",
    "Ownership": "Private",
    "Latitude": "6.646920",
    "Longitude": "-1.903270"
  },
  {
    "Region": "Ashanti",
    "District": "Ahafo-Ano North",
    "FacilityName": "Betiako Health Centre",
    "Type": "Health Centre",
    "Town": "Betiako",
    "Ownership": "Government",
    "Latitude": "6.866380",
    "Longitude": "-2.206850"
  },
  {
    "Region": "Ashanti",
    "District": "Atwima-Mponua",
    "FacilityName": "Beyerebon No.5 Health Centre",
    "Type": "Health Centre",
    "Town": "Bayerebon",
    "Ownership": "Government",
    "Latitude": "6.392110",
    "Longitude": "-2.181340"
  },
  {
    "Region": "Ashanti",
    "District": "Mampong Municipal",
    "FacilityName": "Birem Health Centre",
    "Type": "Health Centre",
    "Town": "Birem",
    "Ownership": "Government",
    "Latitude": "7.227320",
    "Longitude": "-0.991970"
  },
  {
    "Region": "Ashanti",
    "District": "Afigya-Kwabre",
    "FacilityName": "Boamang Health Centre",
    "Type": "Health Centre",
    "Town": "Boamang",
    "Ownership": "Government",
    "Latitude": "6.940730",
    "Longitude": "-1.617050"
  },
  {
    "Region": "Ashanti",
    "District": "Sekyere South",
    "FacilityName": "Boanim Health Centre",
    "Type": "Health Centre",
    "Town": "Boanim",
    "Ownership": "Government",
    "Latitude": "7.034820",
    "Longitude": "-1.487410"
  },
  {
    "Region": "Ashanti",
    "District": "Adansi North",
    "FacilityName": "Bodwesango St Louis Health Centre",
    "Type": "Health Centre",
    "Town": "Bodwesango",
    "Ownership": "CHAG",
    "Latitude": "6.222490",
    "Longitude": "-1.310310"
  },
  {
    "Region": "Ashanti",
    "District": "Ejisu-Juaben Municipal",
    "FacilityName": "Bomfa Health Centre",
    "Type": "Health Centre",
    "Town": "Bomfa",
    "Ownership": "Government",
    "Latitude": "6.596350",
    "Longitude": "-1.299330"
  },
  {
    "Region": "Ashanti",
    "District": "Asante-Akim South",
    "FacilityName": "Bompata Health Centre",
    "Type": "Health Centre",
    "Town": "Bompata",
    "Ownership": "Government",
    "Latitude": "6.667270",
    "Longitude": "-1.083930"
  },
  {
    "Region": "Ashanti",
    "District": "Offinso Municipal",
    "FacilityName": "Bonsua Health Centre",
    "Type": "Health Centre",
    "Town": "Bonsua",
    "Ownership": "Government",
    "Latitude": "6.934850",
    "Longitude": "-1.676150"
  },
  {
    "Region": "Ashanti",
    "District": "Ejisu-Juaben Municipal",
    "FacilityName": "Bonwire Clinic",
    "Type": "Clinic",
    "Town": "Bonwire",
    "Ownership": "Private",
    "Latitude": "6.471600",
    "Longitude": "-1.284600"
  },
  {
    "Region": "Ashanti",
    "District": "Obuasi Municipal",
    "FacilityName": "Brahabebome Clinic",
    "Type": "Clinic",
    "Town": "Brahabebome New Site",
    "Ownership": "Private",
    "Latitude": "6.194440",
    "Longitude": "-1.630140"
  },
  {
    "Region": "Ashanti",
    "District": "Obuasi Municipal",
    "FacilityName": "Bryant  Mission Hospital",
    "Type": "Hospital",
    "Town": "Boete",
    "Ownership": "Private",
    "Latitude": "6.113100",
    "Longitude": "-1.384400"
  },
  {
    "Region": "Ashanti",
    "District": "Obuasi Municipal",
    "FacilityName": "Cecilia Maternity  Home",
    "Type": "Maternity Home",
    "Town": "Kwabrafoso",
    "Ownership": "Private",
    "Latitude": "6.198860",
    "Longitude": "-1.655740"
  },
  {
    "Region": "Ashanti",
    "District": "Obuasi Municipal",
    "FacilityName": "Central Market Clinic",
    "Type": "Clinic",
    "Town": "Estate Extension",
    "Ownership": "Private",
    "Latitude": "6.205910",
    "Longitude": "-1.670310"
  },
  {
    "Region": "Ashanti",
    "District": "Kwabre",
    "FacilityName": "Christ Our Hope Maternity Home",
    "Type": "Maternity Home",
    "Town": "Ntonso",
    "Ownership": "Private",
    "Latitude": "6.754860",
    "Longitude": "-1.527440"
  },
  {
    "Region": "Ashanti",
    "District": "Amansie West",
    "FacilityName": "Christ Our Saviour Clinic",
    "Type": "Clinic",
    "Town": "Manso Moseaso",
    "Ownership": "CHAG",
    "Latitude": "6.511420",
    "Longitude": "-1.852170"
  },
  {
    "Region": "Ashanti",
    "District": "Ejisu-Juaben Municipal",
    "FacilityName": "Church of Christ Mission Clinic",
    "Type": "Clinic",
    "Town": "Adadientam",
    "Ownership": "CHAG",
    "Latitude": "6.713940",
    "Longitude": "-1.428270"
  },
  {
    "Region": "Ashanti",
    "District": "Ejisu-Juaben Municipal",
    "FacilityName": "Church of God Clinic",
    "Type": "Clinic",
    "Town": "Essienimpong",
    "Ownership": "CHAG",
    "Latitude": "6.660530",
    "Longitude": "-1.449790"
  },
  {
    "Region": "Ashanti",
    "District": "Atwima-Mponua",
    "FacilityName": "Community Health Centre",
    "Type": "Clinic",
    "Town": "Mpasatia",
    "Ownership": "CHAG",
    "Latitude": "6.668480",
    "Longitude": "-1.840160"
  },
  {
    "Region": "Ashanti",
    "District": "Sekyere Central",
    "FacilityName": "Cross Medical Centre",
    "Type": "Clinic",
    "Town": "Nsuta",
    "Ownership": "Private",
    "Latitude": "7.008290",
    "Longitude": "-1.375950"
  },
  {
    "Region": "Ashanti",
    "District": "Asante-Akim North Municipal",
    "FacilityName": "Daasebre Maternity Home",
    "Type": "Maternity Home",
    "Town": "Ahenebronuum",
    "Ownership": "Private",
    "Latitude": "6.627760",
    "Longitude": "-1.213140"
  },
  {
    "Region": "Ashanti",
    "District": "Sekyere Afram Plains",
    "FacilityName": "Dadiase Health Centre",
    "Type": "Health Centre",
    "Town": "Dadiase",
    "Ownership": "Government",
    "Latitude": "6.880780",
    "Longitude": "-1.367760"
  },
  {
    "Region": "Ashanti",
    "District": "Ejisu-Juaben Municipal",
    "FacilityName": "Dakopon Hospital",
    "Type": "Hospital",
    "Town": "Kwamo",
    "Ownership": "Private",
    "Latitude": "6.720860",
    "Longitude": "-1.493220"
  },
  {
    "Region": "Ashanti",
    "District": "Amansie West",
    "FacilityName": "Datano Health Post",
    "Type": "Clinic",
    "Town": "Datano",
    "Ownership": "CHAG",
    "Latitude": "6.293980",
    "Longitude": "-1.970980"
  },
  {
    "Region": "Ashanti",
    "District": "Bosome Freho",
    "FacilityName": "Detieso Community Clinic",
    "Type": "Clinic",
    "Town": "Detieso",
    "Ownership": "Government",
    "Latitude": "6.476740",
    "Longitude": "-1.441680"
  },
  {
    "Region": "Ashanti",
    "District": "Sekyere South",
    "FacilityName": "Domeabra Health Centre",
    "Type": "Health Centre",
    "Town": "Domeabra",
    "Ownership": "Government",
    "Latitude": "6.938640",
    "Longitude": "-1.557570"
  },
  {
    "Region": "Ashanti",
    "District": "Adansi North",
    "FacilityName": "Dompoase Benito Menni Health Centre",
    "Type": "Health Centre",
    "Town": "Dompoase",
    "Ownership": "CHAG",
    "Latitude": "6.322820",
    "Longitude": "-1.544680"
  },
  {
    "Region": "Ashanti",
    "District": "Amansie West",
    "FacilityName": "Dora Maternity Clinic",
    "Type": "Maternity Home",
    "Town": "Pakyi  No 2",
    "Ownership": "Private",
    "Latitude": "6.480400",
    "Longitude": "-1.495100"
  },
  {
    "Region": "Ashanti",
    "District": "Offinso North",
    "FacilityName": "Dorcas Memorial Clinic",
    "Type": "Clinic",
    "Town": "Akomadan",
    "Ownership": "CHAG",
    "Latitude": "7.396940",
    "Longitude": "-1.952970"
  },
  {
    "Region": "Ashanti",
    "District": "Bosome Freho",
    "FacilityName": "Duasi Community Clinic",
    "Type": "Clinic",
    "Town": "Duasi",
    "Ownership": "Government",
    "Latitude": "6.468630",
    "Longitude": "-1.395220"
  },
  {
    "Region": "Ashanti",
    "District": "Asante-Akim North Municipal",
    "FacilityName": "Dwease Health Centre",
    "Type": "Health Centre",
    "Town": "Dwease",
    "Ownership": "Government",
    "Latitude": "6.537470",
    "Longitude": "-1.244070"
  },
  {
    "Region": "Ashanti",
    "District": "Asante-Akim South",
    "FacilityName": "Dwendwenase Health Centre",
    "Type": "Health Centre",
    "Town": "Dwendwenase",
    "Ownership": "Government",
    "Latitude": "6.412230",
    "Longitude": "-1.199340"
  },
  {
    "Region": "Ashanti",
    "District": "Atwima-Mponua",
    "FacilityName": "Ebenezer Methodist Clinic",
    "Type": "Clinic",
    "Town": "Mpasatia",
    "Ownership": "CHAG",
    "Latitude": "6.658650",
    "Longitude": "-1.843060"
  },
  {
    "Region": "Ashanti",
    "District": "Adansi South",
    "FacilityName": "Edwafo Health Centre",
    "Type": "Health Centre",
    "Town": "Edwafo",
    "Ownership": "Government",
    "Latitude": "6.196750",
    "Longitude": "-1.573670"
  },
  {
    "Region": "Ashanti",
    "District": "Sekyere East",
    "FacilityName": "Effiduase District Hospital",
    "Type": "District Hospital",
    "Town": "Effiduase",
    "Ownership": "Government",
    "Latitude": "6.847390",
    "Longitude": "-1.393730"
  },
  {
    "Region": "Ashanti",
    "District": "Sekyere East",
    "FacilityName": "Effiduase Trust Maternity Home",
    "Type": "Maternity Home",
    "Town": "Effiduase",
    "Ownership": "Private",
    "Latitude": "6.848210",
    "Longitude": "-1.394120"
  },
  {
    "Region": "Ashanti",
    "District": "Ejisu-Juaben Municipal",
    "FacilityName": "Ejisu Health Centre",
    "Type": "Health Centre",
    "Town": "Ejisu",
    "Ownership": "Government",
    "Latitude": "6.721030",
    "Longitude": "-1.470280"
  },
  {
    "Region": "Ashanti",
    "District": "Ejura Sekyeredumasi",
    "FacilityName": "Ejura District Hospital",
    "Type": "District Hospital",
    "Town": "Ejura",
    "Ownership": "Government",
    "Latitude": "7.389060",
    "Longitude": "-1.351970"
  },
  {
    "Region": "Ashanti",
    "District": "Ejura Sekyeredumasi",
    "FacilityName": "Ejura MCH",
    "Type": "Clinic",
    "Town": "Ejura",
    "Ownership": "Government",
    "Latitude": "7.365560",
    "Longitude": "-1.343580"
  },
  {
    "Region": "Ashanti",
    "District": "Afigya-Kwabre",
    "FacilityName": "Ejuratia Health Centre",
    "Type": "Health Centre",
    "Town": "Ejuratia",
    "Ownership": "Government",
    "Latitude": "6.822870",
    "Longitude": "-1.522270"
  },
  {
    "Region": "Ashanti",
    "District": "Obuasi Municipal",
    "FacilityName": "Emmanuel  Maternity  Home",
    "Type": "Maternity Home",
    "Town": "Boete",
    "Ownership": "Private",
    "Latitude": "6.192350",
    "Longitude": "-1.644750"
  },
  {
    "Region": "Ashanti",
    "District": "Ejura Sekyeredumasi",
    "FacilityName": "Enso Nyameye Maternity Home",
    "Type": "Maternity Home",
    "Town": "Kontokori Line",
    "Ownership": "Private",
    "Latitude": "7.378940",
    "Longitude": "-1.357960"
  },
  {
    "Region": "Ashanti",
    "District": "Ahafo-Ano South",
    "FacilityName": "Essienkyem Health Centre",
    "Type": "Health Centre",
    "Town": "Essienkyem",
    "Ownership": "Government",
    "Latitude": "6.975840",
    "Longitude": "-1.847840"
  },
  {
    "Region": "Ashanti",
    "District": "Atwima-Nwabiagya",
    "FacilityName": "Everest Hospital",
    "Type": "Hospital",
    "Town": "Achiase",
    "Ownership": "Private",
    "Latitude": "7.000000",
    "Longitude": "-2.000000"
  },
  {
    "Region": "Ashanti",
    "District": "Atwima-Kwanwoma",
    "FacilityName": "Eye Adom Maternity Home",
    "Type": "Maternity Home",
    "Town": "Brofoyeduru",
    "Ownership": "Private",
    "Latitude": "6.614580",
    "Longitude": "-1.658570"
  },
  {
    "Region": "Ashanti",
    "District": "Afigya-Kwabre",
    "FacilityName": "Family Care Hospital",
    "Type": "Hospital",
    "Town": "Mowre",
    "Ownership": "Private",
    "Latitude": "6.816140",
    "Longitude": "-1.476750"
  },
  {
    "Region": "Ashanti",
    "District": "Kwabre",
    "FacilityName": "Fawade Nkanta Clinic",
    "Type": "Clinic",
    "Town": "Fawade",
    "Ownership": "Private",
    "Latitude": "6.810470",
    "Longitude": "-1.638660"
  },
  {
    "Region": "Ashanti",
    "District": "Atwima-Kwanwoma",
    "FacilityName": "Foase Health Centre",
    "Type": "Health Centre",
    "Town": "Foase",
    "Ownership": "Government",
    "Latitude": "6.637510",
    "Longitude": "-1.751240"
  },
  {
    "Region": "Ashanti",
    "District": "Adansi North",
    "FacilityName": "Fomena Health Centre",
    "Type": "Health Centre",
    "Town": "Fomena",
    "Ownership": "Government",
    "Latitude": "6.280220",
    "Longitude": "-1.510020"
  },
  {
    "Region": "Ashanti",
    "District": "Adansi North",
    "FacilityName": "Fumso Health Centre",
    "Type": "Health Centre",
    "Town": "Fumso",
    "Ownership": "Government",
    "Latitude": "6.110480",
    "Longitude": "-1.448540"
  },
  {
    "Region": "Ashanti",
    "District": "Adansi North",
    "FacilityName": "Fumso-Ketewa Health Centre",
    "Type": "Health Centre",
    "Town": "Fumso Ketewa",
    "Ownership": "Government",
    "Latitude": "6.296750",
    "Longitude": "-1.631030"
  },
  {
    "Region": "Ashanti",
    "District": "Afigya-Kwabre",
    "FacilityName": "Gladys Maternity Home",
    "Type": "Maternity Home",
    "Town": "Kodie",
    "Ownership": "Private",
    "Latitude": "6.788750",
    "Longitude": "-1.561090"
  },
  {
    "Region": "Ashanti",
    "District": "Ejisu-Juaben Municipal",
    "FacilityName": "Global Evangelical Mission Hospital",
    "Type": "Hospital",
    "Town": "Apromase",
    "Ownership": "CHAG",
    "Latitude": "6.669030",
    "Longitude": "-1.492980"
  },
  {
    "Region": "Ashanti",
    "District": "Atwima-Nwabiagya",
    "FacilityName": "God is Able Maternity Home",
    "Type": "Maternity Home",
    "Town": "Sepase",
    "Ownership": "Private",
    "Latitude": "7.000000",
    "Longitude": "-2.000000"
  },
  {
    "Region": "Ashanti",
    "District": "Ejisu-Juaben Municipal",
    "FacilityName": "Grace Maternity Home and Clinic",
    "Type": "Maternity Home",
    "Town": "Akyawkrom",
    "Ownership": "Private",
    "Latitude": "6.732570",
    "Longitude": "-1.461460"
  },
  {
    "Region": "Ashanti",
    "District": "Bosome Freho",
    "FacilityName": "Gyasikrom Health Centre",
    "Type": "Clinic",
    "Town": "Gyasikrom",
    "Ownership": "Government",
    "Latitude": "6.401450",
    "Longitude": "-1.473130"
  },
  {
    "Region": "Ashanti",
    "District": "Atwima-Mponua",
    "FacilityName": "Gyreso RCH",
    "Type": "RCH",
    "Town": "Gyeresu",
    "Ownership": "Government",
    "Latitude": "6.470060",
    "Longitude": "-2.416730"
  },
  {
    "Region": "Ashanti",
    "District": "Ejura Sekyeredumasi",
    "FacilityName": "Homako Community Clinic",
    "Type": "Clinic",
    "Town": "Homako",
    "Ownership": "Government",
    "Latitude": "7.429150",
    "Longitude": "-1.451060"
  },
  {
    "Region": "Ashanti",
    "District": "Ejisu-Juaben Municipal",
    "FacilityName": "Humble Maternity Home",
    "Type": "Maternity Home",
    "Town": "Kokobra",
    "Ownership": "Private",
    "Latitude": "6.714790",
    "Longitude": "-1.522250"
  },
  {
    "Region": "Ashanti",
    "District": "Ejisu-Juaben Municipal",
    "FacilityName": "Huttel Health Centre",
    "Type": "Health Centre",
    "Town": "Boamadumase",
    "Ownership": "Private",
    "Latitude": "6.615820",
    "Longitude": "-1.340070"
  },
  {
    "Region": "Ashanti",
    "District": "Adansi South",
    "FacilityName": "Hwidiem Community Clinic",
    "Type": "Clinic",
    "Town": "Hwidiem",
    "Ownership": "Government",
    "Latitude": "5.894320",
    "Longitude": "-1.467660"
  },
  {
    "Region": "Ashanti",
    "District": "Obuasi Municipal",
    "FacilityName": "Ideal Homoepatic Clinic",
    "Type": "Clinic",
    "Town": "Obuasi - Stadium",
    "Ownership": "Private",
    "Latitude": "6.205640",
    "Longitude": "-1.684250"
  },
  {
    "Region": "Ashanti",
    "District": "Sekyere Central",
    "FacilityName": "Isaaka Akura Health Centre",
    "Type": "Health Centre",
    "Town": "Isaaka Akura-Afram  Plains",
    "Ownership": "Private",
    "Latitude": "7.415420",
    "Longitude": "-1.137830"
  },
  {
    "Region": "Ashanti",
    "District": "Afigya-Kwabre",
    "FacilityName": "Jalua  Maternity Home",
    "Type": "Maternity Home",
    "Town": "Nkukua Buoho",
    "Ownership": "Private",
    "Latitude": "6.814620",
    "Longitude": "-1.648770"
  },
  {
    "Region": "Ashanti",
    "District": "Sekyere South",
    "FacilityName": "Jamasi Health Centre",
    "Type": "Health Centre",
    "Town": "Jamasi",
    "Ownership": "Government",
    "Latitude": "6.977530",
    "Longitude": "-1.472550"
  },
  {
    "Region": "Ashanti",
    "District": "Sekyere Central",
    "FacilityName": "Jeduako Clinic",
    "Type": "Clinic",
    "Town": "Jeduako",
    "Ownership": "Government",
    "Latitude": "7.095010",
    "Longitude": "-1.209170"
  },
  {
    "Region": "Ashanti",
    "District": "Obuasi Municipal",
    "FacilityName": "Jemina Maternity Home",
    "Type": "Maternity Home",
    "Town": "Obuasi Central",
    "Ownership": "Private",
    "Latitude": "6.203130",
    "Longitude": "-1.668160"
  },
  {
    "Region": "Ashanti",
    "District": "Ejisu-Juaben Municipal",
    "FacilityName": "Jesus Is Lord Maternity Home",
    "Type": "Maternity Home",
    "Town": "Tikrom",
    "Ownership": "Private",
    "Latitude": "6.738650",
    "Longitude": "-1.510920"
  },
  {
    "Region": "Ashanti",
    "District": "Kwabre",
    "FacilityName": "Joy Maternity Home",
    "Type": "Maternity Home",
    "Town": "Mamponteng",
    "Ownership": "Private",
    "Latitude": "6.799620",
    "Longitude": "-1.645430"
  },
  {
    "Region": "Ashanti",
    "District": "Ejisu-Juaben Municipal",
    "FacilityName": "Juaben Government Hospital",
    "Type": "District Hospital",
    "Town": "Juaben",
    "Ownership": "Government",
    "Latitude": "6.816020",
    "Longitude": "-1.413920"
  },
  {
    "Region": "Ashanti",
    "District": "Asante-Akim North Municipal",
    "FacilityName": "Juansa Health Centre",
    "Type": "Health Centre",
    "Town": "Juansa",
    "Ownership": "Government",
    "Latitude": "6.723360",
    "Longitude": "-1.127340"
  },
  {
    "Region": "Ashanti",
    "District": "Asante-Akim South",
    "FacilityName": "Juaso District Hospital",
    "Type": "District Hospital",
    "Town": "Juaso",
    "Ownership": "Government",
    "Latitude": "6.592230",
    "Longitude": "-1.121130"
  },
  {
    "Region": "Ashanti",
    "District": "Amansie West",
    "FacilityName": "Keniago CHPS",
    "Type": "CHPS",
    "Town": "Keniago",
    "Ownership": "Government",
    "Latitude": "6.373440",
    "Longitude": "-2.017640"
  },
  {
    "Region": "Ashanti",
    "District": "Kwabre",
    "FacilityName": "Kenyasi Health Centre",
    "Type": "Health Centre",
    "Town": "Kenyasi",
    "Ownership": "Government",
    "Latitude": "6.785070",
    "Longitude": "-1.566550"
  },
  {
    "Region": "Ashanti",
    "District": "Obuasi Municipal",
    "FacilityName": "KofiKrom Clinic",
    "Type": "Clinic",
    "Town": "Kofi Krom",
    "Ownership": "Private",
    "Latitude": "6.196240",
    "Longitude": "-1.680430"
  },
  {
    "Region": "Ashanti",
    "District": "Mampong Municipal",
    "FacilityName": "Kofiase Health Centre",
    "Type": "Health Centre",
    "Town": "Kofiase",
    "Ownership": "Government",
    "Latitude": "7.141130",
    "Longitude": "-1.483630"
  },
  {
    "Region": "Ashanti",
    "District": "Bekwai Municipal",
    "FacilityName": "Kokofu General Hospital",
    "Type": "Hospital",
    "Town": "Kokofu",
    "Ownership": "Government",
    "Latitude": "6.499030",
    "Longitude": "-1.522540"
  },
  {
    "Region": "Ashanti",
    "District": "Sekyere South",
    "FacilityName": "Kona Health Centre",
    "Type": "Health Centre",
    "Town": "Kona",
    "Ownership": "Government",
    "Latitude": "6.867760",
    "Longitude": "-1.512310"
  },
  {
    "Region": "Ashanti",
    "District": "Asante-Akim North Municipal",
    "FacilityName": "Konongo-Odumasi Government Hospital",
    "Type": "District Hospital",
    "Town": "Konongo",
    "Ownership": "Government",
    "Latitude": "6.624360",
    "Longitude": "-1.217920"
  },
  {
    "Region": "Ashanti",
    "District": "Mampong Municipal",
    "FacilityName": "Krobo Health Centre",
    "Type": "Health Centre",
    "Town": "Krobo",
    "Ownership": "Government",
    "Latitude": "7.074570",
    "Longitude": "-1.423520"
  },
  {
    "Region": "Ashanti",
    "District": "Sekyere Afram Plains",
    "FacilityName": "Kumawu Health Centre",
    "Type": "Health Centre",
    "Town": "Kumawu",
    "Ownership": "Government",
    "Latitude": "6.907080",
    "Longitude": "-1.268030"
  },
  {
    "Region": "Ashanti",
    "District": "Asante-Akim South",
    "FacilityName": "Komeso Health Centre",
    "Type": "Health Centre",
    "Town": "Kumeso",
    "Ownership": "Government",
    "Latitude": "6.461540",
    "Longitude": "-1.069010"
  },
  {
    "Region": "Ashanti",
    "District": "Afigya-Kwabre",
    "FacilityName": "Kwamang Health Centre",
    "Type": "Health Centre",
    "Town": "Kwamang",
    "Ownership": "Government",
    "Latitude": "6.896640",
    "Longitude": "-1.624570"
  },
  {
    "Region": "Ashanti",
    "District": "Sekyere Central",
    "FacilityName": "Kwamang Health Centre",
    "Type": "Health Centre",
    "Town": "Kwamang",
    "Ownership": "Government",
    "Latitude": "6.981880",
    "Longitude": "-1.269610"
  },
  {
    "Region": "Ashanti",
    "District": "Atwima-Kwanwoma",
    "FacilityName": "Kwanwoma Health Centre",
    "Type": "Health Centre",
    "Town": "Kwanwoma",
    "Ownership": "Government",
    "Latitude": "6.628650",
    "Longitude": "-1.635240"
  },
  {
    "Region": "Ashanti",
    "District": "Ejisu-Juaben Municipal",
    "FacilityName": "Kwaso Health Centre",
    "Type": "Health Centre",
    "Town": "Kwaso",
    "Ownership": "Government",
    "Latitude": "6.627710",
    "Longitude": "-1.447220"
  },
  {
    "Region": "Ashanti",
    "District": "Afigya-Kwabre",
    "FacilityName": "Kyekyewere Health Centre",
    "Type": "Health Centre",
    "Town": "Kyekyewere",
    "Ownership": "Government",
    "Latitude": "7.145380",
    "Longitude": "-1.639440"
  },
  {
    "Region": "Ashanti",
    "District": "Asante-Akim North Municipal",
    "FacilityName": "Life Land Clinic",
    "Type": "Clinic",
    "Town": "Abosomtweagya",
    "Ownership": "Private",
    "Latitude": "6.620670",
    "Longitude": "-1.203730"
  },
  {
    "Region": "Ashanti",
    "District": "Atwima-Nwabiagya",
    "FacilityName": "Maakro Clinic",
    "Type": "Clinic",
    "Town": "Maakro",
    "Ownership": "Private",
    "Latitude": "7.000000",
    "Longitude": "-2.000000"
  },
  {
    "Region": "Ashanti",
    "District": "Ahafo-Ano North",
    "FacilityName": "Matang Clinic",
    "Type": "Clinic",
    "Town": "Matang",
    "Ownership": "Private",
    "Latitude": "6.996150",
    "Longitude": "-2.216510"
  },
  {
    "Region": "Ashanti",
    "District": "Ejisu-Juaben Municipal",
    "FacilityName": "Madoma Maternity Clinic",
    "Type": "Clinic",
    "Town": "Besease",
    "Ownership": "CHAG",
    "Latitude": "6.720930",
    "Longitude": "-1.450150"
  },
  {
    "Region": "Ashanti",
    "District": "Ejisu-Juaben Municipal",
    "FacilityName": "Mama Tina Maternity Home",
    "Type": "Maternity Home",
    "Town": "Kwamo",
    "Ownership": "Private",
    "Latitude": "6.715240",
    "Longitude": "-1.505090"
  },
  {
    "Region": "Ashanti",
    "District": "Mampong Municipal",
    "FacilityName": "Mampong District Hospital",
    "Type": "District Hospital",
    "Town": "Mampong",
    "Ownership": "Government",
    "Latitude": "7.045630",
    "Longitude": "-1.402190"
  },
  {
    "Region": "Ashanti",
    "District": "Mampong Municipal",
    "FacilityName": "Mampong Quality Hospital",
    "Type": "Hospital",
    "Town": "Mampong",
    "Ownership": "Private",
    "Latitude": "7.046210",
    "Longitude": "-1.401950"
  },
  {
    "Region": "Ashanti",
    "District": "Kwabre",
    "FacilityName": "Mamponteng Health Centre",
    "Type": "Health Centre",
    "Town": "Mamponteng",
    "Ownership": "Government",
    "Latitude": "6.832950",
    "Longitude": "-1.476950"
  },
  {
    "Region": "Ashanti",
    "District": "Ahafo-Ano North",
    "FacilityName": "Manfo Health Centre",
    "Type": "Health Centre",
    "Town": "Manfo",
    "Ownership": "Government",
    "Latitude": "6.945310",
    "Longitude": "-2.230440"
  },
  {
    "Region": "Ashanti",
    "District": "Ahafo-Ano South",
    "FacilityName": "Mankranso Hospital",
    "Type": "Hospital",
    "Town": "Mankranso",
    "Ownership": "Government",
    "Latitude": "6.820760",
    "Longitude": "-1.862780"
  },
  {
    "Region": "Ashanti",
    "District": "Amansie West",
    "FacilityName": "Manso Abore Health Centre",
    "Type": "Health Centre",
    "Town": "Manso Abore",
    "Ownership": "Government",
    "Latitude": "6.446270",
    "Longitude": "-1.977640"
  },
  {
    "Region": "Ashanti",
    "District": "Amansie West",
    "FacilityName": "Manso Edubia Health Centre",
    "Type": "Health Centre",
    "Town": "Manso-Adubia",
    "Ownership": "Government",
    "Latitude": "6.402560",
    "Longitude": "-1.929570"
  },
  {
    "Region": "Ashanti",
    "District": "Amansie West",
    "FacilityName": "Manso Nkwanta Maternity Home",
    "Type": "Maternity Home",
    "Town": "Manso Nkwanta",
    "Ownership": "Private",
    "Latitude": "6.476820",
    "Longitude": "-1.879160"
  },
  {
    "Region": "Ashanti",
    "District": "Amansie West",
    "FacilityName": "Manso Tontokrom Health Centre",
    "Type": "Health Centre",
    "Town": "Tontokrom",
    "Ownership": "Government",
    "Latitude": "6.249290",
    "Longitude": "-1.994830"
  },
  {
    "Region": "Ashanti",
    "District": "Adansi South",
    "FacilityName": "Mansonso Health Centre",
    "Type": "Health Centre",
    "Town": "Mansonso",
    "Ownership": "Government",
    "Latitude": "6.045470",
    "Longitude": "-1.589550"
  },
  {
    "Region": "Ashanti",
    "District": "Amansie Central",
    "FacilityName": "Marben Maternity",
    "Type": "Maternity Home",
    "Town": "Jacobu",
    "Ownership": "Private",
    "Latitude": "6.352410",
    "Longitude": "-1.677990"
  },
  {
    "Region": "Ashanti",
    "District": "Kwabre",
    "FacilityName": "Meduma Clinic",
    "Type": "Clinic",
    "Town": "Medoma",
    "Ownership": "Private",
    "Latitude": "6.790890",
    "Longitude": "-1.560910"
  },
  {
    "Region": "Ashanti",
    "District": "Ejisu-Juaben Municipal",
    "FacilityName": "Memorial Maternity Home",
    "Type": "Maternity Home",
    "Town": "Okyerekrom",
    "Ownership": "Private",
    "Latitude": "6.721220",
    "Longitude": "-1.525890"
  },
  {
    "Region": "Ashanti",
    "District": "Afigya-Kwabre",
    "FacilityName": "Methodist Faith Healing Hospital",
    "Type": "District Hospital",
    "Town": "Ankaase",
    "Ownership": "CHAG",
    "Latitude": "6.848190",
    "Longitude": "-1.549340"
  },
  {
    "Region": "Ashanti",
    "District": "Amansie Central",
    "FacilityName": "Mile 14 Community Clinic",
    "Type": "Clinic",
    "Town": "Mile 14",
    "Ownership": "Government",
    "Latitude": "6.221260",
    "Longitude": "-1.821390"
  },
  {
    "Region": "Ashanti",
    "District": "Asante-Akim South",
    "FacilityName": "Morso Clinic",
    "Type": "Clinic",
    "Town": "Morso",
    "Ownership": "Government",
    "Latitude": "6.655180",
    "Longitude": "-1.106810"
  },
  {
    "Region": "Ashanti",
    "District": "Amansie West",
    "FacilityName": "Mother of God Clinic",
    "Type": "Clinic",
    "Town": "Esaase",
    "Ownership": "CHAG",
    "Latitude": "6.559420",
    "Longitude": "-1.890460"
  },
  {
    "Region": "Ashanti",
    "District": "Ahafo-Ano South",
    "FacilityName": "Mpasaso Health Centre",
    "Type": "Health Centre",
    "Town": "Mpasaso",
    "Ownership": "Government",
    "Latitude": "6.802740",
    "Longitude": "-2.138640"
  },
  {
    "Region": "Ashanti",
    "District": "Amansie West",
    "FacilityName": "Mpatuom RCH",
    "Type": "RCH",
    "Town": "Mpatuom",
    "Ownership": "Government",
    "Latitude": "6.540880",
    "Longitude": "-1.932150"
  },
  {
    "Region": "Ashanti",
    "District": "Afigya-Kwabre",
    "FacilityName": "Mpobi RCH",
    "Type": "RCH",
    "Town": "Mpobi",
    "Ownership": "Government",
    "Latitude": "6.847750",
    "Longitude": "-1.561650"
  },
  {
    "Region": "Ashanti",
    "District": "Asante-Akim South",
    "FacilityName": "Muranaim Health Centre",
    "Type": "Health Centre",
    "Town": "Muronam",
    "Ownership": "Government",
    "Latitude": "6.247030",
    "Longitude": "-1.205660"
  },
  {
    "Region": "Ashanti",
    "District": "Mampong Municipal",
    "FacilityName": "Nadaworoma Clinic",
    "Type": "Clinic",
    "Town": "Mampong New Town",
    "Ownership": "Private",
    "Latitude": "7.065980",
    "Longitude": "-1.402130"
  },
  {
    "Region": "Ashanti",
    "District": "Atwima-Nwabiagya",
    "FacilityName": "Nana Frema Maternity Home",
    "Type": "Maternity Home",
    "Town": "Adankwame",
    "Ownership": "Private",
    "Latitude": "7.000000",
    "Longitude": "-2.000000"
  },
  {
    "Region": "Ashanti",
    "District": "Bekwai Municipal",
    "FacilityName": "Nancy Powel's Clinic",
    "Type": "Clinic",
    "Town": "Tebeso #2",
    "Ownership": "CHAG",
    "Latitude": "6.317880",
    "Longitude": "-1.308040"
  },
  {
    "Region": "Ashanti",
    "District": "Obuasi Municipal",
    "FacilityName": "Neighbourhood    Clinic",
    "Type": "Clinic",
    "Town": "Abompe    New  Site",
    "Ownership": "Private",
    "Latitude": "6.218890",
    "Longitude": "-1.671170"
  },
  {
    "Region": "Ashanti",
    "District": "Adansi North",
    "FacilityName": "New Ayaasi Adom Maternity Home",
    "Type": "Health Centre",
    "Town": "New Ayaasi",
    "Ownership": "Private",
    "Latitude": "6.296410",
    "Longitude": "-1.523380"
  },
  {
    "Region": "Ashanti",
    "District": "Adansi South",
    "FacilityName": "New Edubiase Hospital",
    "Type": "District Hospital",
    "Town": "New Edubiase",
    "Ownership": "Government",
    "Latitude": "6.054560",
    "Longitude": "-1.392810"
  },
  {
    "Region": "Ashanti",
    "District": "Bekwai Municipal",
    "FacilityName": "New Life Clinic",
    "Type": "Clinic",
    "Town": "Apau",
    "Ownership": "CHAG",
    "Latitude": "6.472840",
    "Longitude": "-1.436770"
  },
  {
    "Region": "Ashanti",
    "District": "Amansie West",
    "FacilityName": "Nipankyeremia CHPS",
    "Type": "CHPS",
    "Town": "Nipankyeremia",
    "Ownership": "Government",
    "Latitude": "6.370020",
    "Longitude": "-2.158270"
  },
  {
    "Region": "Ashanti",
    "District": "Atwima-Nwabiagya",
    "FacilityName": "Nkawie/Toase Hospital",
    "Type": "Hospital",
    "Town": "Nkawie",
    "Ownership": "Government",
    "Latitude": "7.000000",
    "Longitude": "-2.000000"
  },
  {
    "Region": "Ashanti",
    "District": "Offinso North",
    "FacilityName": "Nkenkasu District Hospital",
    "Type": "District Hospital",
    "Town": "Nkenkasu",
    "Ownership": "Government",
    "Latitude": "7.319570",
    "Longitude": "-1.902890"
  },
  {
    "Region": "Ashanti",
    "District": "Ejura Sekyeredumasi",
    "FacilityName": "Nkwanta Community Clinic",
    "Type": "Clinic",
    "Town": "Ejura Nkwanta",
    "Ownership": "Government",
    "Latitude": "7.513780",
    "Longitude": "-1.347250"
  },
  {
    "Region": "Ashanti",
    "District": "Asante-Akim South",
    "FacilityName": "Nnadieso Health Centre",
    "Type": "Health Centre",
    "Town": "Nnadieso",
    "Ownership": "Government",
    "Latitude": "6.599560",
    "Longitude": "-1.092061"
  },
  {
    "Region": "Ashanti",
    "District": "Ejisu-Juaben Municipal",
    "FacilityName": "Nobewam SDA Clinic",
    "Type": "Clinic",
    "Town": "Nobewam",
    "Ownership": "CHAG",
    "Latitude": "6.622890",
    "Longitude": "-1.239850"
  },
  {
    "Region": "Ashanti",
    "District": "Sekyere Central",
    "FacilityName": "Nsutaman Health Centre",
    "Type": "Health Centre",
    "Town": "Nsuta",
    "Ownership": "Government",
    "Latitude": "7.008610",
    "Longitude": "-1.381460"
  },
  {
    "Region": "Ashanti",
    "District": "Atwima-Mponua",
    "FacilityName": "Ntobroso Health Centre",
    "Type": "Health Centre",
    "Town": "Ntobroso",
    "Ownership": "Government",
    "Latitude": "6.535710",
    "Longitude": "-2.042450"
  },
  {
    "Region": "Ashanti",
    "District": "Amansie Central",
    "FacilityName": "Numereso Health Centre",
    "Type": "Health Centre",
    "Town": "Numereso",
    "Ownership": "Government",
    "Latitude": "6.075680",
    "Longitude": "-1.854590"
  },
  {
    "Region": "Ashanti",
    "District": "Asante-Akim North Municipal",
    "FacilityName": "Nutrition Rehabilitation Centre",
    "Type": "Clinic",
    "Town": "Konongo",
    "Ownership": "Government",
    "Latitude": "6.795290",
    "Longitude": "-1.088710"
  },
  {
    "Region": "Ashanti",
    "District": "Atwima-Nwabiagya",
    "FacilityName": "Nyama Maternity Home",
    "Type": "Maternity Home",
    "Town": "Achiase",
    "Ownership": "Private",
    "Latitude": "7.000000",
    "Longitude": "-2.000000"
  },
  {
    "Region": "Ashanti",
    "District": "Amansie West",
    "FacilityName": "Nyame Akwan Maternity",
    "Type": "Maternity Home",
    "Town": "Mpatoum",
    "Ownership": "Private",
    "Latitude": "6.540960",
    "Longitude": "-1.932290"
  },
  {
    "Region": "Ashanti",
    "District": "Atwima-Mponua",
    "FacilityName": "Nyinahin Government Hospital",
    "Type": "District Hospital",
    "Town": "Nyinahin",
    "Ownership": "Government",
    "Latitude": "6.601150",
    "Longitude": "-2.109990"
  },
  {
    "Region": "Ashanti",
    "District": "Asante-Akim South",
    "FacilityName": "Obogu Health Centre",
    "Type": "Health Centre",
    "Town": "Obogu",
    "Ownership": "Government",
    "Latitude": "6.514840",
    "Longitude": "-1.115860"
  },
  {
    "Region": "Ashanti",
    "District": "Adansi South",
    "FacilityName": "Obonsu Clinic",
    "Type": "Clinic",
    "Town": "Obonsu",
    "Ownership": "Government",
    "Latitude": "5.953240",
    "Longitude": "-1.352250"
  },
  {
    "Region": "Ashanti",
    "District": "Obuasi Municipal",
    "FacilityName": "Obuasi Government Hospital",
    "Type": "Hospital",
    "Town": "Obuasi",
    "Ownership": "Government",
    "Latitude": "6.121300",
    "Longitude": "-1.410500"
  },
  {
    "Region": "Ashanti",
    "District": "Amansie West",
    "FacilityName": "Odaho RCH",
    "Type": "RCH",
    "Town": "Odaho",
    "Ownership": "Government",
    "Latitude": "6.273810",
    "Longitude": "-1.968320"
  },
  {
    "Region": "Ashanti",
    "District": "Offinso Municipal",
    "FacilityName": "Offinso Health Centre",
    "Type": "Health Centre",
    "Town": "Offinso",
    "Ownership": "Government",
    "Latitude": "6.937820",
    "Longitude": "-1.675040"
  },
  {
    "Region": "Ashanti",
    "District": "Asante-Akim South",
    "FacilityName": "Ofoase Health Centre",
    "Type": "Health Centre",
    "Town": "Ofoase",
    "Ownership": "Government",
    "Latitude": "6.378130",
    "Longitude": "-1.267460"
  },
  {
    "Region": "Ashanti",
    "District": "Sekyere East",
    "FacilityName": "Okaikrom Health Centre",
    "Type": "Health Centre",
    "Town": "Okaikrom",
    "Ownership": "Government",
    "Latitude": "6.826120",
    "Longitude": "-1.308660"
  },
  {
    "Region": "Ashanti",
    "District": "Sekyere Central",
    "FacilityName": "Catholic Clinic, Oku",
    "Type": "Clinic",
    "Town": "Oku",
    "Ownership": "CHAG",
    "Latitude": "7.347960",
    "Longitude": "-1.003180"
  },
  {
    "Region": "Ashanti",
    "District": "Afigya-Kwabre",
    "FacilityName": "Owusua Maternity Home",
    "Type": "Maternity Home",
    "Town": "Bronkong",
    "Ownership": "Private",
    "Latitude": "6.774740",
    "Longitude": "-1.639060"
  },
  {
    "Region": "Ashanti",
    "District": "Sekyere Afram Plains",
    "FacilityName": "Oyoko Our Lady Maternity Home",
    "Type": "Maternity Home",
    "Town": "Oyoko",
    "Ownership": "Private",
    "Latitude": "6.865210",
    "Longitude": "-1.389760"
  },
  {
    "Region": "Ashanti",
    "District": "Ejisu-Juaben Municipal",
    "FacilityName": "Paradyse Clinic",
    "Type": "Clinic",
    "Town": "Ejisu",
    "Ownership": "Private",
    "Latitude": "6.721050",
    "Longitude": "-1.472620"
  },
  {
    "Region": "Ashanti",
    "District": "Sekyere Afram Plains",
    "FacilityName": "Peace and Comfort Maternity Clinic",
    "Type": "Maternity Home",
    "Town": "Kumawu Bodomasi",
    "Ownership": "Private",
    "Latitude": "6.894280",
    "Longitude": "-1.255220"
  },
  {
    "Region": "Ashanti",
    "District": "Atwima-Nwabiagya",
    "FacilityName": "Peace Homeo Medical Centre",
    "Type": "Clinic",
    "Town": "Ntensere",
    "Ownership": "Private",
    "Latitude": "7.000000",
    "Longitude": "-2.000000"
  },
  {
    "Region": "Ashanti",
    "District": "Ejisu-Juaben Municipal",
    "FacilityName": "Peminase Maternity Home",
    "Type": "Maternity Home",
    "Town": "Peminase",
    "Ownership": "Government",
    "Latitude": "6.526680",
    "Longitude": "-1.310860"
  },
  {
    "Region": "Ashanti",
    "District": "Ahafo-Ano South",
    "FacilityName": "Pokukrom Health Centre",
    "Type": "Health Centre",
    "Town": "Pokukrom",
    "Ownership": "Government",
    "Latitude": "7.003780",
    "Longitude": "-1.952390"
  },
  {
    "Region": "Ashanti",
    "District": "Asante-Akim North Municipal",
    "FacilityName": "Praaso Health Centre",
    "Type": "Health Centre",
    "Town": "Praaso",
    "Ownership": "Government",
    "Latitude": "6.515560",
    "Longitude": "-1.266720"
  },
  {
    "Region": "Ashanti",
    "District": "Offinso Municipal",
    "FacilityName": "Quality Care Clinic",
    "Type": "Clinic",
    "Town": "Offinso Adikuro",
    "Ownership": "Private",
    "Latitude": "6.950190",
    "Longitude": "-1.672630"
  },
  {
    "Region": "Ashanti",
    "District": "Ejisu-Juaben Municipal",
    "FacilityName": "Queen Victoria Maternity Home and Clinic",
    "Type": "Maternity Home",
    "Town": "Serwaa Akura",
    "Ownership": "Private",
    "Latitude": "6.723450",
    "Longitude": "-1.478690"
  },
  {
    "Region": "Ashanti",
    "District": "Obuasi Municipal",
    "FacilityName": "Redemption Bible Way Clinic and Laboratory",
    "Type": "Clinic",
    "Town": "Rams Hill",
    "Ownership": "Private",
    "Latitude": "6.201210",
    "Longitude": "-1.663930"
  },
  {
    "Region": "Ashanti",
    "District": "Amansie West",
    "FacilityName": "Resolute Amansie",
    "Type": "Clinic",
    "Town": "Manso Nkran",
    "Ownership": "Quasi-Government",
    "Latitude": "6.345710",
    "Longitude": "-1.989790"
  },
  {
    "Region": "Ashanti",
    "District": "Ejisu-Juaben Municipal",
    "FacilityName": "Rev. Walker Medical Centre",
    "Type": "Clinic",
    "Town": "Kokobra",
    "Ownership": "Private",
    "Latitude": "6.713940",
    "Longitude": "-1.521920"
  },
  {
    "Region": "Ashanti",
    "District": "Asante-Akim South",
    "FacilityName": "Rose Maternity Home",
    "Type": "Maternity Home",
    "Town": "Obogu",
    "Ownership": "Private",
    "Latitude": "6.520250",
    "Longitude": "-1.120420"
  },
  {
    "Region": "Ashanti",
    "District": "Ahafo-Ano South",
    "FacilityName": "Sabronum  Health Centre",
    "Type": "Health Centre",
    "Town": "Sabronum",
    "Ownership": "Government",
    "Latitude": "7.088090",
    "Longitude": "-1.890950"
  },
  {
    "Region": "Ashanti",
    "District": "Sekyere South",
    "FacilityName": "Sacred Heart Maternity Clinic",
    "Type": "Clinic",
    "Town": "Bepoase",
    "Ownership": "CHAG",
    "Latitude": "7.086760",
    "Longitude": "-1.555140"
  },
  {
    "Region": "Ashanti",
    "District": "Atwima-Mponua",
    "FacilityName": "Saakrom Health Centre",
    "Type": "Health Centre",
    "Town": "Saakrom",
    "Ownership": "Government",
    "Latitude": "6.758710",
    "Longitude": "-2.029930"
  },
  {
    "Region": "Ashanti",
    "District": "Sekyere South",
    "FacilityName": "Salvation Army Clinic",
    "Type": "Hospital",
    "Town": "Wiamoase",
    "Ownership": "CHAG",
    "Latitude": "7.052130",
    "Longitude": "-1.525210"
  },
  {
    "Region": "Ashanti",
    "District": "Mampong Municipal",
    "FacilityName": "SDA Clinic Apaa",
    "Type": "Clinic",
    "Town": "Apaa",
    "Ownership": "CHAG",
    "Latitude": "6.970860",
    "Longitude": "-1.443020"
  },
  {
    "Region": "Ashanti",
    "District": "Bekwai Municipal",
    "FacilityName": "SDA Hospital",
    "Type": "Hospital",
    "Town": "Dominase",
    "Ownership": "CHAG",
    "Latitude": "6.310400",
    "Longitude": "-1.391100"
  },
  {
    "Region": "Ashanti",
    "District": "Ejisu-Juaben Municipal",
    "FacilityName": "SDA Hospital",
    "Type": "Hospital",
    "Town": "Onwe",
    "Ownership": "CHAG",
    "Latitude": "6.680010",
    "Longitude": "-1.541610"
  },
  {
    "Region": "Ashanti",
    "District": "Sekyere South",
    "FacilityName": "SDA Hospital Asamang",
    "Type": "Hospital",
    "Town": "Asamang",
    "Ownership": "CHAG",
    "Latitude": "7.053220",
    "Longitude": "-1.509640"
  },
  {
    "Region": "Ashanti",
    "District": "Sekyere South",
    "FacilityName": "SDA Hospital Wiamoase",
    "Type": "Hospital",
    "Town": "Wiamose",
    "Ownership": "CHAG",
    "Latitude": "6.902580",
    "Longitude": "-1.433110"
  },
  {
    "Region": "Ashanti",
    "District": "Ejura Sekyeredumasi",
    "FacilityName": "Sekyedumase Health Centre",
    "Type": "Health Centre",
    "Town": "Sekyedumase Health Centre",
    "Ownership": "Government",
    "Latitude": "7.313520",
    "Longitude": "-1.579120"
  },
  {
    "Region": "Ashanti",
    "District": "Sekyere East",
    "FacilityName": "Sekyere Health Centre",
    "Type": "Health Centre",
    "Town": "Sekyere",
    "Ownership": "Government",
    "Latitude": "6.926920",
    "Longitude": "-1.374650"
  },
  {
    "Region": "Ashanti",
    "District": "Sekyere East",
    "FacilityName": "Sekyere Methodist Clinic",
    "Type": "Clinic",
    "Town": "Sekyere",
    "Ownership": "CHAG",
    "Latitude": "6.926460",
    "Longitude": "-1.374940"
  },
  {
    "Region": "Ashanti",
    "District": "Sekyere East",
    "FacilityName": "Senchie Methodist Clinic",
    "Type": "Clinic",
    "Town": "Senkyi",
    "Ownership": "CHAG",
    "Latitude": "6.808180",
    "Longitude": "-1.325070"
  },
  {
    "Region": "Ashanti",
    "District": "Amansie West",
    "FacilityName": "Shalom Clinic",
    "Type": "Health Centre",
    "Town": "Watreso",
    "Ownership": "CHAG",
    "Latitude": "6.253510",
    "Longitude": "-1.917970"
  },
  {
    "Region": "Ashanti",
    "District": "Bekwai Municipal",
    "FacilityName": "Shalom Methodist Clinic",
    "Type": "Clinic",
    "Town": "Nsuaem #2",
    "Ownership": "CHAG",
    "Latitude": "6.364940",
    "Longitude": "-1.366450"
  },
  {
    "Region": "Ashanti",
    "District": "Adansi South",
    "FacilityName": "Sikaman Health Centre",
    "Type": "Health Centre",
    "Town": "Sikaman",
    "Ownership": "Government",
    "Latitude": "6.114990",
    "Longitude": "-1.580450"
  },
  {
    "Region": "Ashanti",
    "District": "Mampong Municipal",
    "FacilityName": "Sister Philipa Maternity Home",
    "Type": "Maternity Home",
    "Town": "Mampong Kokoase",
    "Ownership": "Private",
    "Latitude": "7.059210",
    "Longitude": "-1.397030"
  },
  {
    "Region": "Ashanti",
    "District": "Atwima-Mponua",
    "FacilityName": "Sreso Tinpom Health Centre",
    "Type": "Health Centre",
    "Town": "Sreso Tinpom",
    "Ownership": "Government",
    "Latitude": "6.622010",
    "Longitude": "-2.303170"
  },
  {
    "Region": "Ashanti",
    "District": "Sekyere East",
    "FacilityName": "St Luke Clinic",
    "Type": "Clinic",
    "Town": "Seniagya",
    "Ownership": "CHAG",
    "Latitude": "6.797740",
    "Longitude": "-1.320260"
  },
  {
    "Region": "Ashanti",
    "District": "Ejisu-Juaben Municipal",
    "FacilityName": "St. Annes Maternity Clinic",
    "Type": "Clinic",
    "Town": "Donyina",
    "Ownership": "CHAG",
    "Latitude": "6.639940",
    "Longitude": "-1.497820"
  },
  {
    "Region": "Ashanti",
    "District": "Ahafo-Ano South",
    "FacilityName": "St. Anns Maternity Home",
    "Type": "Maternity Home",
    "Town": "Essibey Nkwata",
    "Ownership": "Private",
    "Latitude": "6.845780",
    "Longitude": "-1.760060"
  },
  {
    "Region": "Ashanti",
    "District": "Ejura Sekyeredumasi",
    "FacilityName": "St. Anthony Maternity Clinic",
    "Type": "Maternity Home",
    "Town": "Anyinasu",
    "Ownership": "Government",
    "Latitude": "7.226430",
    "Longitude": "-1.580110"
  },
  {
    "Region": "Ashanti",
    "District": "Ahafo-Ano South",
    "FacilityName": "St. Edwards Clinic",
    "Type": "Health Centre",
    "Town": "Adwinyama",
    "Ownership": "CHAG",
    "Latitude": "6.880140",
    "Longitude": "-1.874280"
  },
  {
    "Region": "Ashanti",
    "District": "Ahafo-Ano South",
    "FacilityName": "St. Johns Clinic",
    "Type": "Health Centre",
    "Town": "Domeabra",
    "Ownership": "CHAG",
    "Latitude": "6.871830",
    "Longitude": "-2.056780"
  },
  {
    "Region": "Ashanti",
    "District": "Kwabre",
    "FacilityName": "St. Joseph's Clinic.",
    "Type": "Clinic",
    "Town": "Abira",
    "Ownership": "CHAG",
    "Latitude": "6.779280",
    "Longitude": "-1.491260"
  },
  {
    "Region": "Ashanti",
    "District": "Obuasi Municipal",
    "FacilityName": "St. Jude Hospital  Ltd.",
    "Type": "Hospital",
    "Town": "Bedieso-Obuasi",
    "Ownership": "Private",
    "Latitude": "6.207230",
    "Longitude": "-1.681370"
  },
  {
    "Region": "Ashanti",
    "District": "Ejura Sekyeredumasi",
    "FacilityName": "St. Luke Hospital Kasei",
    "Type": "Hospital",
    "Town": "Kasei",
    "Ownership": "CHAG",
    "Latitude": "7.539530",
    "Longitude": "-1.346370"
  },
  {
    "Region": "Ashanti",
    "District": "Amansie West",
    "FacilityName": "St. Martin's  Hospital",
    "Type": "Hospital",
    "Town": "Agroyesum",
    "Ownership": "CHAG",
    "Latitude": "6.413370",
    "Longitude": "-1.881540"
  },
  {
    "Region": "Ashanti",
    "District": "Amansie West",
    "FacilityName": "St. Martin's Catholic Clinic",
    "Type": "Clinic",
    "Town": "Abuoso",
    "Ownership": "CHAG",
    "Latitude": "6.313460",
    "Longitude": "-2.109020"
  },
  {
    "Region": "Ashanti",
    "District": "Bekwai Municipal",
    "FacilityName": "St. Mary's Clinic",
    "Type": "Clinic",
    "Town": "Yapesa",
    "Ownership": "CHAG",
    "Latitude": "6.451210",
    "Longitude": "-1.368360"
  },
  {
    "Region": "Ashanti",
    "District": "Ahafo-Ano South",
    "FacilityName": "St. Michael Clinic",
    "Type": "Clinic",
    "Town": "Dwenwoho",
    "Ownership": "Private",
    "Latitude": "6.859350",
    "Longitude": "-1.756230"
  },
  {
    "Region": "Ashanti",
    "District": "Atwima-Nwabiagya",
    "FacilityName": "St. Micheal Maternity Home",
    "Type": "Maternity Home",
    "Town": "Achiase",
    "Ownership": "Private",
    "Latitude": "7.000000",
    "Longitude": "-2.000000"
  },
  {
    "Region": "Ashanti",
    "District": "Offinso Municipal",
    "FacilityName": "St. Patricks Hospital",
    "Type": "Hospital",
    "Town": "Offinso",
    "Ownership": "CHAG",
    "Latitude": "6.931350",
    "Longitude": "-1.681670"
  },
  {
    "Region": "Ashanti",
    "District": "Atwima-Mponua",
    "FacilityName": "St. Peters Clinic",
    "Type": "Clinic",
    "Town": "Ntobroso",
    "Ownership": "CHAG",
    "Latitude": "6.535110",
    "Longitude": "-2.042180"
  },
  {
    "Region": "Ashanti",
    "District": "Amansie Central",
    "FacilityName": "St. Peters' Hospital",
    "Type": "Hospital",
    "Town": "Jacobu",
    "Ownership": "CHAG",
    "Latitude": "6.343310",
    "Longitude": "-1.666690"
  },
  {
    "Region": "Ashanti",
    "District": "Bekwai Municipal",
    "FacilityName": "St. Stephen's Clinic",
    "Type": "Clinic",
    "Town": "Huntade",
    "Ownership": "Private",
    "Latitude": "6.480400",
    "Longitude": "-1.495100"
  },
  {
    "Region": "Ashanti",
    "District": "Afigya-Kwabre",
    "FacilityName": "St. Theresa's Maternity Home",
    "Type": "Maternity Home",
    "Town": "Atimatim",
    "Ownership": "Private",
    "Latitude": "6.763590",
    "Longitude": "-1.610930"
  },
  {
    "Region": "Ashanti",
    "District": "Amansie Central",
    "FacilityName": "St. Thomas General and Maternity Clinic",
    "Type": "Clinic",
    "Town": "Hia",
    "Ownership": "CHAG",
    "Latitude": "6.208040",
    "Longitude": "-1.776490"
  },
  {
    "Region": "Ashanti",
    "District": "Sekyere Afram Plains",
    "FacilityName": "St. Vincent Clinic",
    "Type": "Clinic",
    "Town": "Drobonso",
    "Ownership": "CHAG",
    "Latitude": "7.007140",
    "Longitude": "-1.127470"
  },
  {
    "Region": "Ashanti",
    "District": "Ahafo-Ano North",
    "FacilityName": "Subriso Health Centre",
    "Type": "Health Centre",
    "Town": "Subriso",
    "Ownership": "Government",
    "Latitude": "6.816130",
    "Longitude": "-2.266760"
  },
  {
    "Region": "Ashanti",
    "District": "Ejisu-Juaben Municipal",
    "FacilityName": "Super Care Hospital",
    "Type": "Hospital",
    "Town": "Krapa-Ejisu",
    "Ownership": "Private",
    "Latitude": "6.720230",
    "Longitude": "-1.481040"
  },
  {
    "Region": "Ashanti",
    "District": "Atwima-Mponua",
    "FacilityName": "Tano-Odumasi Health Centre",
    "Type": "Health Centre",
    "Town": "Tano-Odumasi",
    "Ownership": "CHAG",
    "Latitude": "6.497050",
    "Longitude": "-2.396620"
  },
  {
    "Region": "Ashanti",
    "District": "Ahafo-Ano North",
    "FacilityName": "Tepa District Hospital",
    "Type": "District Hospital",
    "Town": "Tepa",
    "Ownership": "Government",
    "Latitude": "6.999660",
    "Longitude": "-2.161020"
  },
  {
    "Region": "Ashanti",
    "District": "Afigya-Kwabre",
    "FacilityName": "Tetrem Health Centre",
    "Type": "Health Centre",
    "Town": "Tetrem",
    "Ownership": "Government",
    "Latitude": "7.037430",
    "Longitude": "-1.637350"
  },
  {
    "Region": "Ashanti",
    "District": "Obuasi Municipal",
    "FacilityName": "The Queens Maternity Home",
    "Type": "Maternity Home",
    "Town": "New Estate-Obuasi",
    "Ownership": "Private",
    "Latitude": "6.207620",
    "Longitude": "-1.672330"
  },
  {
    "Region": "Ashanti",
    "District": "Ejisu-Juaben Municipal",
    "FacilityName": "Tikrom Clinic",
    "Type": "Clinic",
    "Town": "Tikrom",
    "Ownership": "Government",
    "Latitude": "6.731540",
    "Longitude": "-1.513370"
  },
  {
    "Region": "Ashanti",
    "District": "Bekwai Municipal",
    "FacilityName": "Tinkwamah Maternity Home",
    "Type": "Maternity Home",
    "Town": "Amoaful",
    "Ownership": "Private",
    "Latitude": "6.451390",
    "Longitude": "-1.565370"
  },
  {
    "Region": "Ashanti",
    "District": "Atwima-Nwabiagya",
    "FacilityName": "Toase Clinic",
    "Type": "Clinic",
    "Town": "Toase",
    "Ownership": "Private",
    "Latitude": "7.000000",
    "Longitude": "-2.000000"
  },
  {
    "Region": "Ashanti",
    "District": "Atwima-Kwanwoma",
    "FacilityName": "Trabuom Health Centre",
    "Type": "Health Centre",
    "Town": "Trabuom",
    "Ownership": "Government",
    "Latitude": "6.611420",
    "Longitude": "-1.762520"
  },
  {
    "Region": "Ashanti",
    "District": "Atwima-Kwanwoma",
    "FacilityName": "Trede Health Centre",
    "Type": "Health Centre",
    "Town": "Trede",
    "Ownership": "Government",
    "Latitude": "6.578030",
    "Longitude": "-1.668590"
  },
  {
    "Region": "Ashanti",
    "District": "Obuasi Municipal",
    "FacilityName": "Twumwaa Maternity Home",
    "Type": "Maternity Home",
    "Town": "Brahabebome",
    "Ownership": "Private",
    "Latitude": "6.192770",
    "Longitude": "-1.624550"
  },
  {
    "Region": "Ashanti",
    "District": "Atwima-Mponua",
    "FacilityName": "Victory Christ Maternity Home",
    "Type": "Maternity Home",
    "Town": "Mpasatia",
    "Ownership": "Private",
    "Latitude": "6.658360",
    "Longitude": "-1.842230"
  },
  {
    "Region": "Ashanti",
    "District": "Obuasi Municipal",
    "FacilityName": "Watt 250 Maternity  Home",
    "Type": "Maternity Home",
    "Town": "Kwabrafoso",
    "Ownership": "Private",
    "Latitude": "6.199170",
    "Longitude": "-1.655560"
  },
  {
    "Region": "Ashanti",
    "District": "Sekyere Afram Plains",
    "FacilityName": "Westphalian Hospital Complex",
    "Type": "Hospital",
    "Town": "Oyoko",
    "Ownership": "Private",
    "Latitude": "6.868020",
    "Longitude": "-1.390490"
  },
  {
    "Region": "Ashanti",
    "District": "Sekyere South",
    "FacilityName": "Wiamoase Clinic",
    "Type": "Clinic",
    "Town": "Wiamoase",
    "Ownership": "Private",
    "Latitude": "7.052640",
    "Longitude": "-1.502650"
  },
  {
    "Region": "Ashanti",
    "District": "Adansi North",
    "FacilityName": "Wioso Health Centre",
    "Type": "Health Centre",
    "Town": "Wioso",
    "Ownership": "Government",
    "Latitude": "6.281790",
    "Longitude": "-1.661270"
  },
  {
    "Region": "Ashanti",
    "District": "Ahafo-Ano South",
    "FacilityName": "Wioso Methodist Clinic",
    "Type": "Clinic",
    "Town": "Wioso",
    "Ownership": "CHAG",
    "Latitude": "6.955830",
    "Longitude": "-2.006540"
  },
  {
    "Region": "Ashanti",
    "District": "Kwabre",
    "FacilityName": "Wonoo Health Centre",
    "Type": "Health Centre",
    "Town": "Sakora Wonoo",
    "Ownership": "Government",
    "Latitude": "6.797510",
    "Longitude": "-1.501480"
  },
  {
    "Region": "Ashanti",
    "District": "Sekyere Afram Plains",
    "FacilityName": "Woraso Health Centre",
    "Type": "Health Centre",
    "Town": "Woraso",
    "Ownership": "Government",
    "Latitude": "6.876360",
    "Longitude": "-1.276580"
  },
  {
    "Region": "Ashanti",
    "District": "Ejisu-Juaben Municipal",
    "FacilityName": "Yaa Asantewaa Maternity Clinic",
    "Type": "Maternity Home",
    "Town": "Ejisu",
    "Ownership": "Private",
    "Latitude": "6.725050",
    "Longitude": "-1.469980"
  },
  {
    "Region": "Ashanti",
    "District": "Ejura Sekyeredumasi",
    "FacilityName": "Zambrama Community Clinic",
    "Type": "Clinic",
    "Town": "Zambrama",
    "Ownership": "Government",
    "Latitude": "7.520220",
    "Longitude": "-1.420130"
  },
  {
    "Region": "Ashanti",
    "District": "Mampong Municipal",
    "FacilityName": "Mampong Midwifery Training School",
    "Type": "Training Institution",
    "Town": "Mampong",
    "Ownership": "Government",
    "Latitude": "7.023450",
    "Longitude": "-1.235980"
  },
  {
    "Region": "Ashanti",
    "District": "Mampong Municipal",
    "FacilityName": "Mampong Health Assistants Training School",
    "Type": "Training Institution",
    "Town": "Mampong",
    "Ownership": "Government",
    "Latitude": "7.023210",
    "Longitude": "-0.235930"
  },
  {
    "Region": "Ashanti",
    "District": "Mampong Municipal",
    "FacilityName": "Adidwan Health Centre",
    "Type": "Health Centre",
    "Town": "Adidwan",
    "Ownership": "Government",
    "Latitude": "7.150670",
    "Longitude": "-0.241020"
  },
  {
    "Region": "Ashanti",
    "District": "Kwabre",
    "FacilityName": "Asonomaso Government Hospital",
    "Type": "District Hospital",
    "Town": "Asonamaso",
    "Ownership": "Government",
    "Latitude": "6.801620",
    "Longitude": "-1.513740"
  },
  {
    "Region": "Ashanti",
    "District": "Kwabre",
    "FacilityName": "Ahwiaa Maame Rose Maternity",
    "Type": "Clinic",
    "Town": "Ahwiaa",
    "Ownership": "Private",
    "Latitude": "6.758320",
    "Longitude": "-1.567360"
  },
  {
    "Region": "Ashanti",
    "District": "Kumasi Metropolitan",
    "FacilityName": "4 Medical Research Station",
    "Type": "Clinic",
    "Town": "Barracks-Bantama",
    "Ownership": "Quasi-Government",
    "Latitude": "6.808130",
    "Longitude": "-1.539330"
  },
  {
    "Region": "Ashanti",
    "District": "Kumasi Metropolitan",
    "FacilityName": "Abrafi Memorial Hospital",
    "Type": "Hospital",
    "Town": "Dichemso",
    "Ownership": "Private",
    "Latitude": "6.815270",
    "Longitude": "-1.595890"
  },
  {
    "Region": "Ashanti",
    "District": "Kumasi Metropolitan",
    "FacilityName": "Abu Clinic",
    "Type": "Clinic",
    "Town": "Ahenbronum-Tafo",
    "Ownership": "Private",
    "Latitude": "9.777910",
    "Longitude": "-1.644110"
  },
  {
    "Region": "Ashanti",
    "District": "Kumasi Metropolitan",
    "FacilityName": "Academy Clinic",
    "Type": "Clinic",
    "Town": "Asokore Mampong",
    "Ownership": "Private",
    "Latitude": "6.788370",
    "Longitude": "-1.561350"
  },
  {
    "Region": "Ashanti",
    "District": "Kumasi Metropolitan",
    "FacilityName": "Adabie Hospital",
    "Type": "Hospital",
    "Town": "Atonsu",
    "Ownership": "Private",
    "Latitude": "6.754860",
    "Longitude": "-1.527440"
  },
  {
    "Region": "Ashanti",
    "District": "Kumasi Metropolitan",
    "FacilityName": "Adeb-Sab Maternity Home and Clinic",
    "Type": "Maternity Home",
    "Town": "Magazine",
    "Ownership": "Private",
    "Latitude": "6.822870",
    "Longitude": "-1.522270"
  },
  {
    "Region": "Ashanti",
    "District": "Kumasi Metropolitan",
    "FacilityName": "Aded-Sab Maternity Home",
    "Type": "Maternity Home",
    "Town": "Maakro",
    "Ownership": "Private",
    "Latitude": "6.840020",
    "Longitude": "-1.553720"
  },
  {
    "Region": "Ashanti",
    "District": "Kumasi Metropolitan",
    "FacilityName": "Adom Nyame Clinic",
    "Type": "Clinic",
    "Town": "Sepe Timpon",
    "Ownership": "Private",
    "Latitude": "6.816140",
    "Longitude": "-1.476750"
  },
  {
    "Region": "Ashanti",
    "District": "Kumasi Metropolitan",
    "FacilityName": "Adum Clinic",
    "Type": "Clinic",
    "Town": "Adum",
    "Ownership": "Private",
    "Latitude": "6.810470",
    "Longitude": "-1.638660"
  },
  {
    "Region": "Ashanti",
    "District": "Kumasi Metropolitan",
    "FacilityName": "AG Timbers Clinic",
    "Type": "Clinic",
    "Town": "Kaase",
    "Ownership": "Quasi-Government",
    "Latitude": "6.788750",
    "Longitude": "-1.561090"
  },
  {
    "Region": "Ashanti",
    "District": "Kumasi Metropolitan",
    "FacilityName": "Agyeman Memorial Clinic",
    "Type": "Clinic",
    "Town": "Adum",
    "Ownership": "Private",
    "Latitude": "6.814620",
    "Longitude": "-1.648770"
  },
  {
    "Region": "Ashanti",
    "District": "Kumasi Metropolitan",
    "FacilityName": "Agyenkwa N'adom Clinic",
    "Type": "Clinic",
    "Town": "Buokrom",
    "Ownership": "Private",
    "Latitude": "6.799620",
    "Longitude": "-1.645430"
  },
  {
    "Region": "Ashanti",
    "District": "Kumasi Metropolitan",
    "FacilityName": "Agyenkwa Nyame Clinic",
    "Type": "Clinic",
    "Town": "Tanoso",
    "Ownership": "Private",
    "Latitude": "6.785070",
    "Longitude": "-1.566550"
  },
  {
    "Region": "Ashanti",
    "District": "Kumasi Metropolitan",
    "FacilityName": "Ahmadiya Hospital",
    "Type": "Hospital",
    "Town": "Sepe Timpon",
    "Ownership": "Private",
    "Latitude": "6.742460",
    "Longitude": "-1.558770"
  },
  {
    "Region": "Ashanti",
    "District": "Kumasi Metropolitan",
    "FacilityName": "Ahmadiya Muslim Clinic",
    "Type": "Clinic",
    "Town": "Boadi",
    "Ownership": "Private",
    "Latitude": "6.832950",
    "Longitude": "-1.476950"
  },
  {
    "Region": "Ashanti",
    "District": "Kumasi Metropolitan",
    "FacilityName": "Akyaa Memoria Hospital",
    "Type": "Clinic",
    "Town": "Makro",
    "Ownership": "Private",
    "Latitude": "6.790890",
    "Longitude": "-1.560910"
  },
  {
    "Region": "Ashanti",
    "District": "Kumasi Metropolitan",
    "FacilityName": "Alpha Maternity Home",
    "Type": "Maternity Home",
    "Town": "Sokoban",
    "Ownership": "Private",
    "Latitude": "6.848190",
    "Longitude": "-1.549340"
  },
  {
    "Region": "Ashanti",
    "District": "Kumasi Metropolitan",
    "FacilityName": "Amamata Memorial Maternity Home",
    "Type": "Maternity Home",
    "Town": "Sawaba",
    "Ownership": "Private",
    "Latitude": "6.847750",
    "Longitude": "-1.561650"
  },
  {
    "Region": "Ashanti",
    "District": "Kumasi Metropolitan",
    "FacilityName": "Amanfrom Clinic and Laboratory",
    "Type": "Clinic",
    "Town": "North Zong-Manhyia",
    "Ownership": "Private",
    "Latitude": "6.774740",
    "Longitude": "-1.639060"
  },
  {
    "Region": "Ashanti",
    "District": "Kumasi Metropolitan",
    "FacilityName": "Amoah Memorial Hospital",
    "Type": "Hospital",
    "Town": "Pankrono",
    "Ownership": "Private",
    "Latitude": "6.779280",
    "Longitude": "-1.491260"
  },
  {
    "Region": "Ashanti",
    "District": "Kumasi Metropolitan",
    "FacilityName": "Ampabame Clinic",
    "Type": "Clinic",
    "Town": "Ampabame",
    "Ownership": "Private",
    "Latitude": "6.763590",
    "Longitude": "-1.610930"
  },
  {
    "Region": "Ashanti",
    "District": "Kumasi Metropolitan",
    "FacilityName": "Ampomaa Memorial Maternity Home",
    "Type": "Maternity Home",
    "Town": "Anwomaso-High Tension",
    "Ownership": "Private",
    "Latitude": "6.797510",
    "Longitude": "-1.501480"
  },
  {
    "Region": "Ashanti",
    "District": "Kumasi Metropolitan",
    "FacilityName": "Animah Clinic",
    "Type": "Clinic",
    "Town": "S-line Atonsu",
    "Ownership": "Private",
    "Latitude": "6.650680",
    "Longitude": "-1.597570"
  },
  {
    "Region": "Ashanti",
    "District": "Kumasi Metropolitan",
    "FacilityName": "Animwaa Medical Centre",
    "Type": "Hospital",
    "Town": "Amena",
    "Ownership": "Private",
    "Latitude": "6.665180",
    "Longitude": "-1.535210"
  },
  {
    "Region": "Ashanti",
    "District": "Kumasi Metropolitan",
    "FacilityName": "Anwiam Clinic",
    "Type": "Clinic",
    "Town": "Afful Nkwanta",
    "Ownership": "Private",
    "Latitude": "6.690710",
    "Longitude": "-1.601380"
  },
  {
    "Region": "Ashanti",
    "District": "Kumasi Metropolitan",
    "FacilityName": "Anwomaso Health Centre",
    "Type": "Health Centre",
    "Town": "Anwomase",
    "Ownership": "Government",
    "Latitude": "6.691630",
    "Longitude": "-1.526780"
  },
  {
    "Region": "Ashanti",
    "District": "Kumasi Metropolitan",
    "FacilityName": "Apatrapa Health Centre",
    "Type": "Health Centre",
    "Town": "Apatrapa",
    "Ownership": "Government",
    "Latitude": "6.707110",
    "Longitude": "-1.683020"
  },
  {
    "Region": "Ashanti",
    "District": "Kumasi Metropolitan",
    "FacilityName": "Asihene's Clinic",
    "Type": "Clinic",
    "Town": "Krofrom",
    "Ownership": "Private",
    "Latitude": "6.712240",
    "Longitude": "-1.612120"
  },
  {
    "Region": "Ashanti",
    "District": "Kumasi Metropolitan",
    "FacilityName": "Assalam Clinic",
    "Type": "Clinic",
    "Town": "Akrome",
    "Ownership": "Private",
    "Latitude": "6.697790",
    "Longitude": "-1.593610"
  },
  {
    "Region": "Ashanti",
    "District": "Kumasi Metropolitan",
    "FacilityName": "Asuoyeboa Clinic",
    "Type": "Clinic",
    "Town": "Asuoyeboa",
    "Ownership": "Private",
    "Latitude": "6.692330",
    "Longitude": "-1.668710"
  },
  {
    "Region": "Ashanti",
    "District": "Kumasi Metropolitan",
    "FacilityName": "Atasemanso Hospital",
    "Type": "Hospital",
    "Town": "Atasemanso",
    "Ownership": "Private",
    "Latitude": "6.652070",
    "Longitude": "-1.633180"
  },
  {
    "Region": "Ashanti",
    "District": "Kumasi Metropolitan",
    "FacilityName": "Atsyor Hospital Complex",
    "Type": "Hospital",
    "Town": "Ataafoa-Pankrono",
    "Ownership": "Private",
    "Latitude": "6.749750",
    "Longitude": "-1.617640"
  },
  {
    "Region": "Ashanti",
    "District": "Kumasi Metropolitan",
    "FacilityName": "Atwima Timbers Clinic",
    "Type": "Clinic",
    "Town": "Asokwa",
    "Ownership": "Quasi-Government",
    "Latitude": "6.669120",
    "Longitude": "-1.610250"
  },
  {
    "Region": "Ashanti",
    "District": "Kumasi Metropolitan",
    "FacilityName": "Ayeduasi Health Centre",
    "Type": "Health Centre",
    "Town": "Ayigya",
    "Ownership": "Government",
    "Latitude": "6.686650",
    "Longitude": "-1.572940"
  },
  {
    "Region": "Ashanti",
    "District": "Kumasi Metropolitan",
    "FacilityName": "Ayiwa Maternity Home",
    "Type": "Maternity Home",
    "Town": "New Suame",
    "Ownership": "Private",
    "Latitude": "6.715660",
    "Longitude": "-1.633770"
  },
  {
    "Region": "Ashanti",
    "District": "Kumasi Metropolitan",
    "FacilityName": "Baby Pearl Maternity Home/Clinic",
    "Type": "Maternity Home",
    "Town": "Buokrom",
    "Ownership": "Private",
    "Latitude": "6.738380",
    "Longitude": "-1.589110"
  },
  {
    "Region": "Ashanti",
    "District": "Kumasi Metropolitan",
    "FacilityName": "Bantama Clinic",
    "Type": "Clinic",
    "Town": "Bantama",
    "Ownership": "Private",
    "Latitude": "6.705150",
    "Longitude": "-1.635510"
  },
  {
    "Region": "Ashanti",
    "District": "Kumasi Metropolitan",
    "FacilityName": "Bibiani Logging and Lumber Company Clin",
    "Type": "Clinic",
    "Town": "Kaase",
    "Ownership": "Quasi-Government",
    "Latitude": "6.663720",
    "Longitude": "-1.604670"
  },
  {
    "Region": "Ashanti",
    "District": "Kumasi Metropolitan",
    "FacilityName": "Bilsons Allens Clinic",
    "Type": "Clinic",
    "Town": "Ahinsan",
    "Ownership": "Private",
    "Latitude": "6.670880",
    "Longitude": "-1.588790"
  },
  {
    "Region": "Ashanti",
    "District": "Kumasi Metropolitan",
    "FacilityName": "Bimpeh Hill Clinic",
    "Type": "Clinic",
    "Town": "New Amakom",
    "Ownership": "Private",
    "Latitude": "6.681670",
    "Longitude": "-1.599260"
  },
  {
    "Region": "Ashanti",
    "District": "Kumasi Metropolitan",
    "FacilityName": "Bimpeh Hill Hospital Annex",
    "Type": "Clinic",
    "Town": "Ashanti New Town",
    "Ownership": "Private",
    "Latitude": "6.708820",
    "Longitude": "-1.619110"
  },
  {
    "Region": "Ashanti",
    "District": "Kumasi Metropolitan",
    "FacilityName": "Boatemaa Maternity Home",
    "Type": "Maternity Home",
    "Town": "Asokore Mampong",
    "Ownership": "Private",
    "Latitude": "6.713710",
    "Longitude": "-1.566830"
  },
  {
    "Region": "Ashanti",
    "District": "Kumasi Metropolitan",
    "FacilityName": "Boatemaa Memorial Hospital",
    "Type": "Hospital",
    "Town": "Asawase",
    "Ownership": "Private",
    "Latitude": "6.706340",
    "Longitude": "-1.604940"
  },
  {
    "Region": "Ashanti",
    "District": "Kumasi Metropolitan",
    "FacilityName": "Bomso Specialist Hospital",
    "Type": "Hospital",
    "Town": "Bomso",
    "Ownership": "Private",
    "Latitude": "6.684530",
    "Longitude": "-1.578880"
  },
  {
    "Region": "Ashanti",
    "District": "Kumasi Metropolitan",
    "FacilityName": "Brainok Salvation Clinic",
    "Type": "Clinic",
    "Town": "Ash Town",
    "Ownership": "Private",
    "Latitude": "6.704790",
    "Longitude": "-1.622950"
  },
  {
    "Region": "Ashanti",
    "District": "Kumasi Metropolitan",
    "FacilityName": "Bremang Clinic",
    "Type": "Clinic",
    "Town": "Bremang",
    "Ownership": "Private",
    "Latitude": "6.741660",
    "Longitude": "-1.630880"
  },
  {
    "Region": "Ashanti",
    "District": "Kumasi Metropolitan",
    "FacilityName": "Central Male  Prisons Clinic",
    "Type": "Clinic",
    "Town": "Adum",
    "Ownership": "Quasi-Government",
    "Latitude": "6.693610",
    "Longitude": "-1.624110"
  },
  {
    "Region": "Ashanti",
    "District": "Kumasi Metropolitan",
    "FacilityName": "Central Maternity Home",
    "Type": "Maternity Home",
    "Town": "Pankrono",
    "Ownership": "Private",
    "Latitude": "6.749440",
    "Longitude": "-1.604180"
  },
  {
    "Region": "Ashanti",
    "District": "Kumasi Metropolitan",
    "FacilityName": "Central Maternity Home - ANNEX",
    "Type": "Maternity Home",
    "Town": "Tafo Zongo",
    "Ownership": "Private",
    "Latitude": "6.733310",
    "Longitude": "-1.633810"
  },
  {
    "Region": "Ashanti",
    "District": "Kumasi Metropolitan",
    "FacilityName": "Charity Hospital",
    "Type": "Hospital",
    "Town": "Kropo",
    "Ownership": "Private",
    "Latitude": "6.718180",
    "Longitude": "-1.642210"
  },
  {
    "Region": "Ashanti",
    "District": "Kumasi Metropolitan",
    "FacilityName": "Christ the King Clinic",
    "Type": "Clinic",
    "Town": "Ahinsan",
    "Ownership": "Private",
    "Latitude": "6.662570",
    "Longitude": "-1.600410"
  },
  {
    "Region": "Ashanti",
    "District": "Kumasi Metropolitan",
    "FacilityName": "Church of Christ Mission",
    "Type": "Clinic",
    "Town": "Bomso",
    "Ownership": "CHAG",
    "Latitude": "6.685830",
    "Longitude": "-1.579320"
  },
  {
    "Region": "Ashanti",
    "District": "Kumasi Metropolitan",
    "FacilityName": "City Hospital",
    "Type": "Hospital",
    "Town": "Stadium",
    "Ownership": "Private",
    "Latitude": "6.680160",
    "Longitude": "-1.603710"
  },
  {
    "Region": "Ashanti",
    "District": "Kumasi Metropolitan",
    "FacilityName": "Clinic Ash Town Ltd.",
    "Type": "Clinic",
    "Town": "Ash Town",
    "Ownership": "Private",
    "Latitude": "6.705180",
    "Longitude": "-1.619430"
  },
  {
    "Region": "Ashanti",
    "District": "Kumasi Metropolitan",
    "FacilityName": "Coca Cola Bottling Clinic",
    "Type": "Clinic",
    "Town": "Ahinsan",
    "Ownership": "Quasi-Government",
    "Latitude": "6.665110",
    "Longitude": "-1.602990"
  },
  {
    "Region": "Ashanti",
    "District": "Kumasi Metropolitan",
    "FacilityName": "Cocoa Clinic",
    "Type": "Clinic",
    "Town": "Cocobod-Adum",
    "Ownership": "Quasi-Government",
    "Latitude": "6.683680",
    "Longitude": "-1.616670"
  },
  {
    "Region": "Ashanti",
    "District": "Kumasi Metropolitan",
    "FacilityName": "Comfort Maternity Home",
    "Type": "Maternity Home",
    "Town": "Oduom",
    "Ownership": "Private",
    "Latitude": "6.695610",
    "Longitude": "-1.541940"
  },
  {
    "Region": "Ashanti",
    "District": "Kumasi Metropolitan",
    "FacilityName": "Complementary Clinic",
    "Type": "Clinic",
    "Town": "Gyinase",
    "Ownership": "Private",
    "Latitude": "6.662350",
    "Longitude": "-1.575970"
  },
  {
    "Region": "Ashanti",
    "District": "Kumasi Metropolitan",
    "FacilityName": "Cosmos Clinic",
    "Type": "Clinic",
    "Town": "Bremang - Azar Junction",
    "Ownership": "Private",
    "Latitude": "6.730390",
    "Longitude": "-1.627360"
  },
  {
    "Region": "Ashanti",
    "District": "Kumasi Metropolitan",
    "FacilityName": "County Hospital",
    "Type": "Hospital",
    "Town": "Abrepo",
    "Ownership": "Private",
    "Latitude": "6.726510",
    "Longitude": "-1.657960"
  },
  {
    "Region": "Ashanti",
    "District": "Kumasi Metropolitan",
    "FacilityName": "CPC Maternity and Clinic",
    "Type": "Clinic",
    "Town": "Amanfrom",
    "Ownership": "Private",
    "Latitude": "6.755430",
    "Longitude": "-1.684120"
  },
  {
    "Region": "Ashanti",
    "District": "Kumasi Metropolitan",
    "FacilityName": "Dr. Brown Clinic",
    "Type": "Clinic",
    "Town": "Mile 3 Old Tafo",
    "Ownership": "Private",
    "Latitude": "6.726550",
    "Longitude": "-1.615190"
  },
  {
    "Region": "Ashanti",
    "District": "Kumasi Metropolitan",
    "FacilityName": "Dr. Okyere Piese Clinic",
    "Type": "Clinic",
    "Town": "Dichemso",
    "Ownership": "Private",
    "Latitude": "6.710910",
    "Longitude": "-1.607510"
  },
  {
    "Region": "Ashanti",
    "District": "Kumasi Metropolitan",
    "FacilityName": "Dr. Osei Clinic",
    "Type": "Clinic",
    "Town": "Akrome",
    "Ownership": "Private",
    "Latitude": "6.699390",
    "Longitude": "-1.590170"
  },
  {
    "Region": "Ashanti",
    "District": "Kumasi Metropolitan",
    "FacilityName": "Dr. Quaye Clinic",
    "Type": "Clinic",
    "Town": "Asuogya",
    "Ownership": "Private",
    "Latitude": "6.712720",
    "Longitude": "-1.642830"
  },
  {
    "Region": "Ashanti",
    "District": "Kumasi Metropolitan",
    "FacilityName": "Dunkirk Clinic",
    "Type": "Clinic",
    "Town": "Bompata",
    "Ownership": "Private",
    "Latitude": "6.692160",
    "Longitude": "-1.618530"
  },
  {
    "Region": "Ashanti",
    "District": "Kumasi Metropolitan",
    "FacilityName": "Ebenezer Clinic",
    "Type": "Clinic",
    "Town": "Anloga",
    "Ownership": "Private",
    "Latitude": "6.678240",
    "Longitude": "-1.592340"
  },
  {
    "Region": "Ashanti",
    "District": "Kumasi Metropolitan",
    "FacilityName": "Ebenezer Maternity Home",
    "Type": "Maternity Home",
    "Town": "Abrepo Junction",
    "Ownership": "Private",
    "Latitude": "6.709950",
    "Longitude": "-1.638120"
  },
  {
    "Region": "Ashanti",
    "District": "Kumasi Metropolitan",
    "FacilityName": "Eliza Maternity Home",
    "Type": "Maternity Home",
    "Town": "Akwatialine",
    "Ownership": "Private",
    "Latitude": "6.694910",
    "Longitude": "-1.607480"
  },
  {
    "Region": "Ashanti",
    "District": "Kumasi Metropolitan",
    "FacilityName": "Emahata Clinic",
    "Type": "Clinic",
    "Town": "Kwadaso",
    "Ownership": "Private",
    "Latitude": "6.692560",
    "Longitude": "-1.658130"
  },
  {
    "Region": "Ashanti",
    "District": "Kumasi Metropolitan",
    "FacilityName": "Enec Dental Clinic",
    "Type": "Clinic",
    "Town": "Ash Town",
    "Ownership": "Private",
    "Latitude": "6.703380",
    "Longitude": "-1.617680"
  },
  {
    "Region": "Ashanti",
    "District": "Kumasi Metropolitan",
    "FacilityName": "Faith Clinic",
    "Type": "Clinic",
    "Town": "Adum",
    "Ownership": "Private",
    "Latitude": "6.694990",
    "Longitude": "-1.624110"
  },
  {
    "Region": "Ashanti",
    "District": "Kumasi Metropolitan",
    "FacilityName": "Faith Maternity Home",
    "Type": "Maternity Home",
    "Town": "Krofrom",
    "Ownership": "Private",
    "Latitude": "6.714770",
    "Longitude": "-1.615740"
  },
  {
    "Region": "Ashanti",
    "District": "Kumasi Metropolitan",
    "FacilityName": "Florence Maternity Home",
    "Type": "Maternity Home",
    "Town": "Anloga",
    "Ownership": "Private",
    "Latitude": "6.680610",
    "Longitude": "-1.592840"
  },
  {
    "Region": "Ashanti",
    "District": "Kumasi Metropolitan",
    "FacilityName": "Gansmen's Medical Centre",
    "Type": "Clinic",
    "Town": "Bremang North",
    "Ownership": "Private",
    "Latitude": "6.740110",
    "Longitude": "-1.625490"
  },
  {
    "Region": "Ashanti",
    "District": "Kumasi Metropolitan",
    "FacilityName": "Ghana Brewery Clinic",
    "Type": "Clinic",
    "Town": "Ahinsan",
    "Ownership": "Quasi-Government",
    "Latitude": "6.663850",
    "Longitude": "-1.601140"
  },
  {
    "Region": "Ashanti",
    "District": "Kumasi Metropolitan",
    "FacilityName": "Ghana Guiness Breweries Group Clinic",
    "Type": "Clinic",
    "Town": "Ahinsan",
    "Ownership": "Quasi-Government",
    "Latitude": "6.650850",
    "Longitude": "-1.607570"
  },